[{"SkiArea":{"id":"1","name":"Smokey Mountain Ski Club","official_website":"http:\/\/www.skismokey.ca\/","geo_lat":"52.977947","geo_lng":"-66.92094","top_elevation":null,"bottom_elevation":null,"vertical_drop":null,"operating_status":"1","has_downhill":true,"has_nordic":false},"Region":[{"name":"Newfoundland and Labrador","id":"335","RegionsSkiArea":{"id":"1","ski_area_id":"1","region_id":"335","temp_region":"60","temp_country":"31"}}]},{"SkiArea":{"id":"2","name":"Northern Lights Ski Club","official_website":"https:\/\/www.facebook.com\/northern.lights.ski.club\/","geo_lat":"53.52358","geo_lng":"-64.020094","top_elevation":null,"bottom_elevation":null,"vertical_drop":null,"operating_status":"1","has_downhill":true,"has_nordic":false},"Region":[{"name":"Newfoundland and Labrador","id":"335","RegionsSkiArea":{"id":"2","ski_area_id":"2","region_id":"335","temp_region":"60","temp_country":"31"}}]},{"SkiArea":{"id":"3","name":"White Hills","official_website":"http:\/\/www.whitehillsresort.com\/","geo_lat":"48.161777","geo_lng":"-54.046468","top_elevation":null,"bottom_elevation":null,"vertical_drop":null,"operating_status":"1","has_downhill":true,"has_nordic":false},"Region":[{"name":"Newfoundland and Labrador","id":"335","RegionsSkiArea":{"id":"3","ski_area_id":"3","region_id":"335","temp_region":"60","temp_country":"31"}}]},{"SkiArea":{"id":"5","name":"Marble Mountain","official_website":"http:\/\/www.skimarble.com\/","geo_lat":"48.936666666667","geo_lng":"-57.827222222222","top_elevation":null,"bottom_elevation":null,"vertical_drop":null,"operating_status":"1","has_downhill":true,"has_nordic":false},"Region":[{"name":"Newfoundland and Labrador","id":"335","RegionsSkiArea":{"id":"5","ski_area_id":"5","region_id":"335","temp_region":"60","temp_country":"31"}}]},{"SkiArea":{"id":"6","name":"Snow Valley Ski Club","official_website":"http:\/\/www.snowvalley.ca","geo_lat":"53.4842024615732","geo_lng":"-113.556683063507","top_elevation":null,"bottom_elevation":null,"vertical_drop":null,"operating_status":"1","has_downhill":true,"has_nordic":false},"Region":[{"name":"Alberta","id":"334","RegionsSkiArea":{"id":"6","ski_area_id":"6","region_id":"334","temp_region":"59","temp_country":"31"}}]},{"SkiArea":{"id":"7","name":"Kinosoo Ridge","official_website":"http:\/\/www.kinosoo.ca\/","geo_lat":"54.4400994648045","geo_lng":"-110.019149780273","top_elevation":null,"bottom_elevation":null,"vertical_drop":null,"operating_status":"1","has_downhill":true,"has_nordic":false},"Region":[{"name":"Alberta","id":"334","RegionsSkiArea":{"id":"7","ski_area_id":"7","region_id":"334","temp_region":"59","temp_country":"31"}}]},{"SkiArea":{"id":"8","name":"Marmot Basin","official_website":"http:\/\/www.skimarmot.com","geo_lat":"52.798588378277","geo_lng":"-118.10078236972","top_elevation":"2612","bottom_elevation":"1698","vertical_drop":"914","operating_status":"1","has_downhill":true,"has_nordic":false},"Region":[{"name":"Alberta","id":"334","RegionsSkiArea":{"id":"8","ski_area_id":"8","region_id":"334","temp_region":"59","temp_country":"31"}}]},{"SkiArea":{"id":"9","name":"Nakiska Ski Resort","official_website":"http:\/\/www.skinakiska.com","geo_lat":"50.947773770583","geo_lng":"-115.17152563367","top_elevation":null,"bottom_elevation":null,"vertical_drop":null,"operating_status":"1","has_downhill":true,"has_nordic":false},"Region":[{"name":"Alberta","id":"334","RegionsSkiArea":{"id":"9","ski_area_id":"9","region_id":"334","temp_region":"59","temp_country":"31"}}]},{"SkiArea":{"id":"10","name":"Banff Sunshine (Formerly Sunshine Village)","official_website":"http:\/\/skibanff.com","geo_lat":"51.08611777439","geo_lng":"-115.77390455793","top_elevation":"2730","bottom_elevation":"1658","vertical_drop":"1070","operating_status":"1","has_downhill":true,"has_nordic":false},"Region":[{"name":"Alberta","id":"334","RegionsSkiArea":{"id":"10","ski_area_id":"10","region_id":"334","temp_region":"59","temp_country":"31"}}]},{"SkiArea":{"id":"11","name":"Rabbit Hill Ski and Snowboard Center","official_website":"http:\/\/www.rabbithill.com","geo_lat":"53.3811269497706","geo_lng":"-113.672018051147","top_elevation":null,"bottom_elevation":null,"vertical_drop":null,"operating_status":"1","has_downhill":true,"has_nordic":false},"Region":[{"name":"Alberta","id":"334","RegionsSkiArea":{"id":"11","ski_area_id":"11","region_id":"334","temp_region":"59","temp_country":"31"}}]},{"SkiArea":{"id":"12","name":"Sunridge Ski Area","official_website":"http:\/\/www.sunridgeskiarea.com","geo_lat":"53.5645280712511","geo_lng":"-113.372468948364","top_elevation":null,"bottom_elevation":null,"vertical_drop":null,"operating_status":"1","has_downhill":true,"has_nordic":false},"Region":[{"name":"Alberta","id":"334","RegionsSkiArea":{"id":"12","ski_area_id":"12","region_id":"334","temp_region":"59","temp_country":"31"}}]},{"SkiArea":{"id":"13","name":"Silver Summit","official_website":"http:\/\/www.silversummit.ca","geo_lat":"53.893212181825","geo_lng":"-116.567859649658","top_elevation":null,"bottom_elevation":null,"vertical_drop":null,"operating_status":"2","has_downhill":true,"has_nordic":true},"Region":[{"name":"Alberta","id":"334","RegionsSkiArea":{"id":"13","ski_area_id":"13","region_id":"334","temp_region":"59","temp_country":"31"}}]},{"SkiArea":{"id":"14","name":"Fortress (Snowridge)","official_website":"http:\/\/www.skifortress.com\/","geo_lat":"50.8245355553757","geo_lng":"-115.199031829834","top_elevation":null,"bottom_elevation":null,"vertical_drop":null,"operating_status":"2","has_downhill":true,"has_nordic":false},"Region":[{"name":"Alberta","id":"334","RegionsSkiArea":{"id":"14","ski_area_id":"14","region_id":"334","temp_region":"59","temp_country":"31"}}]},{"SkiArea":{"id":"15","name":"Hidden Valley","official_website":"http:\/\/www.skihiddenvalley.net","geo_lat":"49.6565718402243","geo_lng":"-110.260848999023","top_elevation":null,"bottom_elevation":null,"vertical_drop":null,"operating_status":"1","has_downhill":true,"has_nordic":false},"Region":[{"name":"Alberta","id":"334","RegionsSkiArea":{"id":"15","ski_area_id":"15","region_id":"334","temp_region":"59","temp_country":"31"}}]},{"SkiArea":{"id":"16","name":"Mount Norquay","official_website":"http:\/\/www.banffnorquay.com\/","geo_lat":"51.206218724672","geo_lng":"-115.6053711919","top_elevation":null,"bottom_elevation":null,"vertical_drop":null,"operating_status":"1","has_downhill":true,"has_nordic":false},"Region":[{"name":"Alberta","id":"334","RegionsSkiArea":{"id":"16","ski_area_id":"16","region_id":"334","temp_region":"59","temp_country":"31"}}]},{"SkiArea":{"id":"17","name":"Nitehawk Ski Hill","official_website":"http:\/\/gonitehawk.com\/","geo_lat":"55.0607855921448","geo_lng":"-118.859689235687","top_elevation":null,"bottom_elevation":null,"vertical_drop":null,"operating_status":"1","has_downhill":true,"has_nordic":false},"Region":[{"name":"Alberta","id":"334","RegionsSkiArea":{"id":"17","ski_area_id":"17","region_id":"334","temp_region":"59","temp_country":"31"}}]},{"SkiArea":{"id":"18","name":"Castle Mountain Resort","official_website":"http:\/\/www.skicastle.ca","geo_lat":"49.315355179835","geo_lng":"-114.42647097722","top_elevation":"2273","bottom_elevation":"1410","vertical_drop":"863","operating_status":"1","has_downhill":true,"has_nordic":false},"Region":[{"name":"Alberta","id":"334","RegionsSkiArea":{"id":"18","ski_area_id":"18","region_id":"334","temp_region":"59","temp_country":"31"}}]},{"SkiArea":{"id":"19","name":"Canyon Ski Resort (Ski Red Deer)","official_website":"http:\/\/www.canyonski.net","geo_lat":"52.3047000653693","geo_lng":"-113.682832717896","top_elevation":null,"bottom_elevation":null,"vertical_drop":null,"operating_status":"1","has_downhill":true,"has_nordic":false},"Region":[{"name":"Alberta","id":"334","RegionsSkiArea":{"id":"19","ski_area_id":"19","region_id":"334","temp_region":"59","temp_country":"31"}}]},{"SkiArea":{"id":"20","name":"Edmonton Ski Club","official_website":"http:\/\/www.edmontonskiclub.com","geo_lat":"53.533611111111","geo_lng":"-113.47527777778","top_elevation":null,"bottom_elevation":null,"vertical_drop":null,"operating_status":"1","has_downhill":true,"has_nordic":false},"Region":[{"name":"Alberta","id":"334","RegionsSkiArea":{"id":"20","ski_area_id":"20","region_id":"334","temp_region":"59","temp_country":"31"}}]},{"SkiArea":{"id":"21","name":"WinSport (Canada Olympic Park)","official_website":"http:\/\/www.winsportcanada.ca\/cop\/","geo_lat":"51.079722222222","geo_lng":"-114.21583333333","top_elevation":null,"bottom_elevation":null,"vertical_drop":null,"operating_status":"1","has_downhill":true,"has_nordic":false},"Region":[{"name":"Alberta","id":"334","RegionsSkiArea":{"id":"21","ski_area_id":"21","region_id":"334","temp_region":"59","temp_country":"31"}}]},{"SkiArea":{"id":"22","name":"Lake Louise","official_website":"http:\/\/www.skilouise.com\/","geo_lat":"51.448275777989","geo_lng":"-116.12743053131","top_elevation":null,"bottom_elevation":null,"vertical_drop":null,"operating_status":"1","has_downhill":true,"has_nordic":false},"Region":[{"name":"Alberta","id":"334","RegionsSkiArea":{"id":"22","ski_area_id":"22","region_id":"334","temp_region":"59","temp_country":"31"}}]},{"SkiArea":{"id":"23","name":"Wapiti Valley","official_website":"http:\/\/www.skiwapitivalley.com\/","geo_lat":"53.2352219916111","geo_lng":"-104.460926055908","top_elevation":null,"bottom_elevation":null,"vertical_drop":null,"operating_status":"1","has_downhill":true,"has_nordic":false},"Region":[{"name":"Saskatchewan","id":"333","RegionsSkiArea":{"id":"23","ski_area_id":"23","region_id":"333","temp_region":"58","temp_country":"31"}}]},{"SkiArea":{"id":"24","name":"Table Mountain","official_website":"http:\/\/www.tablemountainregionalpark.com\/","geo_lat":"52.8154206989343","geo_lng":"-108.605346679688","top_elevation":null,"bottom_elevation":null,"vertical_drop":null,"operating_status":"1","has_downhill":true,"has_nordic":false},"Region":[{"name":"Saskatchewan","id":"333","RegionsSkiArea":{"id":"24","ski_area_id":"24","region_id":"333","temp_region":"58","temp_country":"31"}}]},{"SkiArea":{"id":"25","name":"Mission Ridge Winter Park","official_website":"http:\/\/missionridge.ca\/","geo_lat":"50.754486318336","geo_lng":"-103.778743743896","top_elevation":null,"bottom_elevation":null,"vertical_drop":null,"operating_status":"1","has_downhill":true,"has_nordic":false},"Region":[{"name":"Saskatchewan","id":"333","RegionsSkiArea":{"id":"25","ski_area_id":"25","region_id":"333","temp_region":"58","temp_country":"31"}}]},{"SkiArea":{"id":"26","name":"Prairie West Terminal Snow Park (Twin Towers)","official_website":"http:\/\/www.skicanada.org\/skiarea\/default.cfm?dsp=SkiAreaDsp&Act=Details&ResortUID=70DD7ED6-49B0-4AB1-B5CA1E425CB6D314&#Details","geo_lat":"51.677105941083","geo_lng":"-108.49451780319","top_elevation":"747","bottom_elevation":"655","vertical_drop":"91","operating_status":"2","has_downhill":true,"has_nordic":false},"Region":[{"name":"Saskatchewan","id":"333","RegionsSkiArea":{"id":"26","ski_area_id":"26","region_id":"333","temp_region":"58","temp_country":"31"}}]},{"SkiArea":{"id":"27","name":"Brookvale Provincial Park","official_website":"http:\/\/www.tourismpei.com\/brookvale-activity-park","geo_lat":"46.282508","geo_lng":"-63.410265","top_elevation":null,"bottom_elevation":null,"vertical_drop":null,"operating_status":"1","has_downhill":true,"has_nordic":true},"Region":[{"name":"Prince Edward Island","id":"332","RegionsSkiArea":{"id":"27","ski_area_id":"27","region_id":"332","temp_region":"57","temp_country":"31"}}]},{"SkiArea":{"id":"28","name":"Whistler Blackcomb (Garibaldi Lift Co.)","official_website":"http:\/\/www.whistlerblackcomb.com","geo_lat":"50.11308267731076","geo_lng":"-122.95376412570478","top_elevation":"2284","bottom_elevation":"653","vertical_drop":"1609","operating_status":"1","has_downhill":true,"has_nordic":false},"Region":[{"name":"British Columbia","id":"331","RegionsSkiArea":{"id":"28","ski_area_id":"28","region_id":"331","temp_region":"56","temp_country":"31"}}]},{"SkiArea":{"id":"29","name":"Mount Washington Alpine Resort","official_website":"http:\/\/www.mountwashington.ca","geo_lat":"49.747385876698","geo_lng":"-125.29947329937","top_elevation":"1588","bottom_elevation":"1110","vertical_drop":"478","operating_status":"1","has_downhill":true,"has_nordic":true},"Region":[{"name":"British Columbia","id":"331","RegionsSkiArea":{"id":"29","ski_area_id":"29","region_id":"331","temp_region":"56","temp_country":"31"}}]},{"SkiArea":{"id":"30","name":"Fernie Alpine Resort","official_website":"http:\/\/www.skifernie.com","geo_lat":"49.457354130236","geo_lng":"-115.10197947689","top_elevation":"2134","bottom_elevation":"1052","vertical_drop":"1082","operating_status":"1","has_downhill":true,"has_nordic":true},"Region":[{"name":"British Columbia","id":"331","RegionsSkiArea":{"id":"30","ski_area_id":"30","region_id":"331","temp_region":"56","temp_country":"31"}}]},{"SkiArea":{"id":"31","name":"Murray Ridge","official_website":"http:\/\/www.murrayridge.com\/","geo_lat":"54.5187898757911","geo_lng":"-124.20970916748","top_elevation":null,"bottom_elevation":null,"vertical_drop":null,"operating_status":"1","has_downhill":true,"has_nordic":true},"Region":[{"name":"British Columbia","id":"331","RegionsSkiArea":{"id":"31","ski_area_id":"31","region_id":"331","temp_region":"56","temp_country":"31"}}]},{"SkiArea":{"id":"32","name":"Revelstoke Mountain Resort (Powder Springs)","official_website":"http:\/\/www.revelstokemountainresort.com","geo_lat":"50.961585282842","geo_lng":"-118.1256089504","top_elevation":"2225","bottom_elevation":"512","vertical_drop":"1713","operating_status":"1","has_downhill":true,"has_nordic":false},"Region":[{"name":"British Columbia","id":"331","RegionsSkiArea":{"id":"32","ski_area_id":"32","region_id":"331","temp_region":"56","temp_country":"31"}}]},{"SkiArea":{"id":"33","name":"Salmo Ski Area","official_website":"http:\/\/www.skisalmo.com","geo_lat":"49.186303725305","geo_lng":"-117.300510406494","top_elevation":null,"bottom_elevation":null,"vertical_drop":null,"operating_status":"1","has_downhill":true,"has_nordic":false},"Region":[{"name":"British Columbia","id":"331","RegionsSkiArea":{"id":"33","ski_area_id":"33","region_id":"331","temp_region":"56","temp_country":"31"}}]},{"SkiArea":{"id":"34","name":"Tabor Mountain","official_website":"http:\/\/www.tabormountain.com","geo_lat":"53.9439629965073","geo_lng":"-122.454299926758","top_elevation":"1030","bottom_elevation":"795","vertical_drop":"236","operating_status":"2","has_downhill":true,"has_nordic":false},"Region":[{"name":"British Columbia","id":"331","RegionsSkiArea":{"id":"34","ski_area_id":"34","region_id":"331","temp_region":"56","temp_country":"31"}}]},{"SkiArea":{"id":"35","name":"Summit Lake","official_website":"http:\/\/www.skisummitlake.com","geo_lat":"50.1460238220552","geo_lng":"-117.615144252777","top_elevation":null,"bottom_elevation":null,"vertical_drop":null,"operating_status":"1","has_downhill":true,"has_nordic":false},"Region":[{"name":"British Columbia","id":"331","RegionsSkiArea":{"id":"35","ski_area_id":"35","region_id":"331","temp_region":"56","temp_country":"31"}}]},{"SkiArea":{"id":"36","name":"Sun Peaks Resort","official_website":"http:\/\/www.sunpeaksresort.com\/","geo_lat":"50.88509127048632","geo_lng":"-119.88597127442017","top_elevation":"2080","bottom_elevation":"1198","vertical_drop":"882","operating_status":"1","has_downhill":true,"has_nordic":true},"Region":[{"name":"British Columbia","id":"331","RegionsSkiArea":{"id":"36","ski_area_id":"36","region_id":"331","temp_region":"56","temp_country":"31"}}]},{"SkiArea":{"id":"37","name":"Mt. Baldy Family Ski Area","official_website":"http:\/\/www.skibaldy.com","geo_lat":"49.1529696561704","geo_lng":"-119.235305786133","top_elevation":null,"bottom_elevation":null,"vertical_drop":null,"operating_status":"1","has_downhill":true,"has_nordic":true},"Region":[{"name":"British Columbia","id":"331","RegionsSkiArea":{"id":"37","ski_area_id":"37","region_id":"331","temp_region":"56","temp_country":"31"}}]},{"SkiArea":{"id":"38","name":"Hudson Bay Mountain (Ski Smithers)","official_website":"http:\/\/www.hudsonbaymountain.com\/homepage","geo_lat":"54.77128618359","geo_lng":"-127.26184844971","top_elevation":"1650","bottom_elevation":"1142","vertical_drop":"533","operating_status":"1","has_downhill":true,"has_nordic":false},"Region":[{"name":"British Columbia","id":"331","RegionsSkiArea":{"id":"38","ski_area_id":"38","region_id":"331","temp_region":"56","temp_country":"31"}}]},{"SkiArea":{"id":"39","name":"Kimberley Alpine Resort","official_website":"http:\/\/www.skikimberley.com","geo_lat":"49.6870669231854","geo_lng":"-116.009616851807","top_elevation":"1905","bottom_elevation":"1293","vertical_drop":"612","operating_status":"1","has_downhill":true,"has_nordic":false},"Region":[{"name":"British Columbia","id":"331","RegionsSkiArea":{"id":"39","ski_area_id":"39","region_id":"331","temp_region":"56","temp_country":"31"}}]},{"SkiArea":{"id":"40","name":"Kicking Horse (Whitetooth)","official_website":"http:\/\/www.kickinghorseresort.com","geo_lat":"51.286431076078","geo_lng":"-117.06663856128","top_elevation":null,"bottom_elevation":null,"vertical_drop":"1260","operating_status":"1","has_downhill":true,"has_nordic":false},"Region":[{"name":"British Columbia","id":"331","RegionsSkiArea":{"id":"40","ski_area_id":"40","region_id":"331","temp_region":"56","temp_country":"31"}}]},{"SkiArea":{"id":"41","name":"Red Mountain Resort","official_website":"http:\/\/www.redresort.com","geo_lat":"49.101448269987","geo_lng":"-117.84124279161","top_elevation":"2075","bottom_elevation":"1185","vertical_drop":"889","operating_status":"1","has_downhill":true,"has_nordic":false},"Region":[{"name":"British Columbia","id":"331","RegionsSkiArea":{"id":"41","ski_area_id":"41","region_id":"331","temp_region":"56","temp_country":"31"}}]},{"SkiArea":{"id":"42","name":"Manning Park Resort","official_website":"http:\/\/www.manningpark.com","geo_lat":"49.068018007324","geo_lng":"-120.91604232788","top_elevation":"1790","bottom_elevation":"1353","vertical_drop":"437","operating_status":"1","has_downhill":true,"has_nordic":true},"Region":[{"name":"British Columbia","id":"331","RegionsSkiArea":{"id":"42","ski_area_id":"42","region_id":"331","temp_region":"56","temp_country":"31"}}]},{"SkiArea":{"id":"43","name":"Mount Seymour","official_website":"http:\/\/www.mountseymour.com","geo_lat":"49.371703383095","geo_lng":"-122.94473140066","top_elevation":"1265","bottom_elevation":"935","vertical_drop":"330","operating_status":"1","has_downhill":true,"has_nordic":false},"Region":[{"name":"British Columbia","id":"331","RegionsSkiArea":{"id":"43","ski_area_id":"43","region_id":"331","temp_region":"56","temp_country":"31"}}]},{"SkiArea":{"id":"44","name":"Silver Star Mountain Resort","official_website":"http:\/\/www.skisilverstar.com","geo_lat":"50.374526005244","geo_lng":"-119.04756419693","top_elevation":"1915","bottom_elevation":"1155","vertical_drop":"760","operating_status":"1","has_downhill":true,"has_nordic":true},"Region":[{"name":"British Columbia","id":"331","RegionsSkiArea":{"id":"44","ski_area_id":"44","region_id":"331","temp_region":"56","temp_country":"31"}}]},{"SkiArea":{"id":"45","name":"Powder King","official_website":"http:\/\/www.powderking.com","geo_lat":"55.3639906650811","geo_lng":"-122.610855102539","top_elevation":null,"bottom_elevation":null,"vertical_drop":null,"operating_status":"1","has_downhill":true,"has_nordic":false},"Region":[{"name":"British Columbia","id":"331","RegionsSkiArea":{"id":"45","ski_area_id":"45","region_id":"331","temp_region":"56","temp_country":"31"}}]},{"SkiArea":{"id":"46","name":"Panorama Mountain Village","official_website":"http:\/\/www.panoramaresort.com","geo_lat":"50.44599754538288","geo_lng":"-116.23748959530113","top_elevation":"2450","bottom_elevation":"1150","vertical_drop":"1225","operating_status":"1","has_downhill":true,"has_nordic":true},"Region":[{"name":"British Columbia","id":"331","RegionsSkiArea":{"id":"46","ski_area_id":"46","region_id":"331","temp_region":"56","temp_country":"31"}}]},{"SkiArea":{"id":"47","name":"Fairmont Hot Springs Resort","official_website":"http:\/\/www.fairmonthotsprings.com","geo_lat":"50.3385584502358","geo_lng":"-115.826282501221","top_elevation":null,"bottom_elevation":null,"vertical_drop":null,"operating_status":"1","has_downhill":true,"has_nordic":false},"Region":[{"name":"British Columbia","id":"331","RegionsSkiArea":{"id":"47","ski_area_id":"47","region_id":"331","temp_region":"56","temp_country":"31"}}]},{"SkiArea":{"id":"48","name":"Purden Ski Village","official_website":"http:\/\/www.purden.com","geo_lat":"53.9003938315946","geo_lng":"-121.884727478027","top_elevation":null,"bottom_elevation":null,"vertical_drop":null,"operating_status":"1","has_downhill":true,"has_nordic":false},"Region":[{"name":"British Columbia","id":"331","RegionsSkiArea":{"id":"48","ski_area_id":"48","region_id":"331","temp_region":"56","temp_country":"31"}}]},{"SkiArea":{"id":"49","name":"Apex Mountain Resort","official_website":"http:\/\/www.apexresort.com","geo_lat":"49.3910328728792","geo_lng":"-119.904356002808","top_elevation":null,"bottom_elevation":null,"vertical_drop":null,"operating_status":"1","has_downhill":true,"has_nordic":false},"Region":[{"name":"British Columbia","id":"331","RegionsSkiArea":{"id":"49","ski_area_id":"49","region_id":"331","temp_region":"56","temp_country":"31"}}]},{"SkiArea":{"id":"50","name":"Cypress Mountain","official_website":"http:\/\/www.cypressmountain.com","geo_lat":"49.396419028281","geo_lng":"-123.20170631617","top_elevation":"1440","bottom_elevation":null,"vertical_drop":"610","operating_status":"1","has_downhill":true,"has_nordic":true},"Region":[{"name":"British Columbia","id":"331","RegionsSkiArea":{"id":"50","ski_area_id":"50","region_id":"331","temp_region":"56","temp_country":"31"}}]},{"SkiArea":{"id":"51","name":"Phoenix Mountain","official_website":"http:\/\/www.skiphoenix.com","geo_lat":"49.1090511842822","geo_lng":"-118.586254119873","top_elevation":null,"bottom_elevation":null,"vertical_drop":null,"operating_status":"1","has_downhill":true,"has_nordic":false},"Region":[{"name":"British Columbia","id":"331","RegionsSkiArea":{"id":"51","ski_area_id":"51","region_id":"331","temp_region":"56","temp_country":"31"}}]},{"SkiArea":{"id":"52","name":"Crystal Mountain Resort","official_website":"http:\/\/www.crystalresort.com","geo_lat":"49.88202623627","geo_lng":"-119.711666107178","top_elevation":null,"bottom_elevation":null,"vertical_drop":null,"operating_status":"2","has_downhill":true,"has_nordic":false},"Region":[{"name":"British Columbia","id":"331","RegionsSkiArea":{"id":"52","ski_area_id":"52","region_id":"331","temp_region":"56","temp_country":"31"}}]},{"SkiArea":{"id":"53","name":"Harper Mountain","official_website":"http:\/\/www.harpermountain.com","geo_lat":"50.7230902042327","geo_lng":"-120.139789581299","top_elevation":null,"bottom_elevation":null,"vertical_drop":null,"operating_status":"1","has_downhill":true,"has_nordic":true},"Region":[{"name":"British Columbia","id":"331","RegionsSkiArea":{"id":"53","ski_area_id":"53","region_id":"331","temp_region":"56","temp_country":"31"}}]},{"SkiArea":{"id":"54","name":"Mt. Cain","official_website":"http:\/\/www.mountcain.com","geo_lat":"50.2189847821671","geo_lng":"-126.353073120117","top_elevation":null,"bottom_elevation":null,"vertical_drop":null,"operating_status":"1","has_downhill":true,"has_nordic":false},"Region":[{"name":"British Columbia","id":"331","RegionsSkiArea":{"id":"54","ski_area_id":"54","region_id":"331","temp_region":"56","temp_country":"31"}}]},{"SkiArea":{"id":"55","name":"Shames Mountain","official_website":"http:\/\/www.shamesmountain.com","geo_lat":"54.4849984772733","geo_lng":"-128.95357131958","top_elevation":null,"bottom_elevation":null,"vertical_drop":null,"operating_status":"1","has_downhill":true,"has_nordic":false},"Region":[{"name":"British Columbia","id":"331","RegionsSkiArea":{"id":"55","ski_area_id":"55","region_id":"331","temp_region":"56","temp_country":"31"}}]},{"SkiArea":{"id":"56","name":"Sasquatch Mountain (Hemlock Resort)","official_website":"http:\/\/www.hemlockvalleyresort.com","geo_lat":"49.379411246141","geo_lng":"-121.93450927734","top_elevation":"1372","bottom_elevation":"975","vertical_drop":"397","operating_status":"1","has_downhill":true,"has_nordic":false},"Region":[{"name":"British Columbia","id":"331","RegionsSkiArea":{"id":"56","ski_area_id":"56","region_id":"331","temp_region":"56","temp_country":"31"}}]},{"SkiArea":{"id":"57","name":"Big White Ski Resort","official_website":"http:\/\/www.bigwhite.com\/","geo_lat":"49.732351673427","geo_lng":"-118.94174923584","top_elevation":"2319","bottom_elevation":"1508","vertical_drop":"777","operating_status":"1","has_downhill":true,"has_nordic":true},"Region":[{"name":"British Columbia","id":"331","RegionsSkiArea":{"id":"57","ski_area_id":"57","region_id":"331","temp_region":"56","temp_country":"31"}}]},{"SkiArea":{"id":"58","name":"Grouse Mountain","official_website":"http:\/\/www.grousemountain.com","geo_lat":"49.380025920244","geo_lng":"-123.08103561401","top_elevation":"1250","bottom_elevation":"274","vertical_drop":"384","operating_status":"1","has_downhill":true,"has_nordic":false},"Region":[{"name":"British Columbia","id":"331","RegionsSkiArea":{"id":"58","ski_area_id":"58","region_id":"331","temp_region":"56","temp_country":"31"}}]},{"SkiArea":{"id":"59","name":"Whitewater Ski Resort","official_website":"http:\/\/www.skiwhitewater.com\/","geo_lat":"49.441209640663","geo_lng":"-117.15488533447","top_elevation":"2398","bottom_elevation":"1646","vertical_drop":"623","operating_status":"1","has_downhill":true,"has_nordic":true},"Region":[{"name":"British Columbia","id":"331","RegionsSkiArea":{"id":"59","ski_area_id":"59","region_id":"331","temp_region":"56","temp_country":"31"}}]},{"SkiArea":{"id":"60","name":"Falcon Ridge","official_website":"http:\/\/www.falcontrails.mb.ca","geo_lat":"49.704275","geo_lng":"-95.191471","top_elevation":null,"bottom_elevation":null,"vertical_drop":null,"operating_status":"1","has_downhill":true,"has_nordic":true},"Region":[{"name":"Manitoba","id":"330","RegionsSkiArea":{"id":"60","ski_area_id":"60","region_id":"330","temp_region":"55","temp_country":"31"}}]},{"SkiArea":{"id":"61","name":"Asessippi Ski Area and Resort","official_website":"http:\/\/www.asessippi.com\/","geo_lat":"50.951308","geo_lng":"-101.338217","top_elevation":null,"bottom_elevation":null,"vertical_drop":null,"operating_status":"1","has_downhill":true,"has_nordic":false},"Region":[{"name":"Manitoba","id":"330","RegionsSkiArea":{"id":"61","ski_area_id":"61","region_id":"330","temp_region":"55","temp_country":"31"}}]},{"SkiArea":{"id":"62","name":"Holiday Mountain","official_website":"http:\/\/www.holidaymountain.com","geo_lat":"49.236784","geo_lng":"-98.693941","top_elevation":null,"bottom_elevation":null,"vertical_drop":null,"operating_status":"1","has_downhill":true,"has_nordic":false},"Region":[{"name":"Manitoba","id":"330","RegionsSkiArea":{"id":"62","ski_area_id":"62","region_id":"330","temp_region":"55","temp_country":"31"}}]},{"SkiArea":{"id":"63","name":"Stony Mountain Ski Area","official_website":"http:\/\/www.skistony.com\/","geo_lat":"50.094095","geo_lng":"-97.20651","top_elevation":null,"bottom_elevation":null,"vertical_drop":null,"operating_status":"1","has_downhill":true,"has_nordic":false},"Region":[{"name":"Manitoba","id":"330","RegionsSkiArea":{"id":"63","ski_area_id":"63","region_id":"330","temp_region":"55","temp_country":"31"}}]},{"SkiArea":{"id":"64","name":"Mystery Mountain","official_website":"http:\/\/www.mysterymountain.ca\/","geo_lat":"55.868826","geo_lng":"-97.776935","top_elevation":null,"bottom_elevation":null,"vertical_drop":null,"operating_status":"1","has_downhill":true,"has_nordic":true},"Region":[{"name":"Manitoba","id":"330","RegionsSkiArea":{"id":"64","ski_area_id":"64","region_id":"330","temp_region":"55","temp_country":"31"}}]},{"SkiArea":{"id":"65","name":"Poley Mountain","official_website":"http:\/\/www.poleymountain.com","geo_lat":"45.679269","geo_lng":"-65.382583","top_elevation":null,"bottom_elevation":null,"vertical_drop":null,"operating_status":"1","has_downhill":true,"has_nordic":false},"Region":[{"name":"New Brunswick","id":"329","RegionsSkiArea":{"id":"65","ski_area_id":"65","region_id":"329","temp_region":"54","temp_country":"31"}}]},{"SkiArea":{"id":"66","name":"Crabbe Mountain","official_website":"http:\/\/www.crabbemountain.com\/","geo_lat":"46.120263","geo_lng":"-67.106976","top_elevation":null,"bottom_elevation":null,"vertical_drop":null,"operating_status":"1","has_downhill":true,"has_nordic":false},"Region":[{"name":"New Brunswick","id":"329","RegionsSkiArea":{"id":"66","ski_area_id":"66","region_id":"329","temp_region":"54","temp_country":"31"}}]},{"SkiArea":{"id":"67","name":"Mont Farlagne","official_website":"http:\/\/www.montfarlagne.com\/fr\/index.php","geo_lat":"47.413712","geo_lng":"-68.38185","top_elevation":null,"bottom_elevation":null,"vertical_drop":null,"operating_status":"1","has_downhill":true,"has_nordic":false},"Region":[{"name":"New Brunswick","id":"329","RegionsSkiArea":{"id":"67","ski_area_id":"67","region_id":"329","temp_region":"54","temp_country":"31"}}]},{"SkiArea":{"id":"68","name":"Sugarloaf Provincial Park","official_website":"http:\/\/parcsugarloafpark.ca\/","geo_lat":"47.982235","geo_lng":"-66.694703","top_elevation":null,"bottom_elevation":null,"vertical_drop":null,"operating_status":"1","has_downhill":true,"has_nordic":false},"Region":[{"name":"New Brunswick","id":"329","RegionsSkiArea":{"id":"68","ski_area_id":"68","region_id":"329","temp_region":"54","temp_country":"31"}}]},{"SkiArea":{"id":"69","name":"Ski Martock","official_website":"http:\/\/www.martock.com\/","geo_lat":"44.932527777778","geo_lng":"-64.165194444444","top_elevation":null,"bottom_elevation":null,"vertical_drop":null,"operating_status":"1","has_downhill":true,"has_nordic":true},"Region":[{"name":"Nova Scotia","id":"328","RegionsSkiArea":{"id":"69","ski_area_id":"69","region_id":"328","temp_region":"53","temp_country":"31"}}]},{"SkiArea":{"id":"70","name":"Cape Smokey","official_website":"https:\/\/capesmokey.ca\/","geo_lat":"46.6268063953552","geo_lng":"-60.4230880737305","top_elevation":null,"bottom_elevation":null,"vertical_drop":null,"operating_status":"1","has_downhill":true,"has_nordic":false},"Region":[{"name":"Nova Scotia","id":"328","RegionsSkiArea":{"id":"70","ski_area_id":"70","region_id":"328","temp_region":"53","temp_country":"31"}}]},{"SkiArea":{"id":"71","name":"Ski Wentworth","official_website":"http:\/\/www.skiwentworth.ca\/","geo_lat":"45.608514","geo_lng":"-63.562141","top_elevation":null,"bottom_elevation":null,"vertical_drop":null,"operating_status":"1","has_downhill":true,"has_nordic":true},"Region":[{"name":"Nova Scotia","id":"328","RegionsSkiArea":{"id":"71","ski_area_id":"71","region_id":"328","temp_region":"53","temp_country":"31"}}]},{"SkiArea":{"id":"72","name":"Ski Ben Eoin","official_website":"http:\/\/www.skibeneoin.com\/","geo_lat":"45.974687","geo_lng":"-60.434941","top_elevation":null,"bottom_elevation":null,"vertical_drop":null,"operating_status":"1","has_downhill":true,"has_nordic":true},"Region":[{"name":"Nova Scotia","id":"328","RegionsSkiArea":{"id":"72","ski_area_id":"72","region_id":"328","temp_region":"53","temp_country":"31"}}]},{"SkiArea":{"id":"73","name":"Mont Olympia","official_website":"http:\/\/www.montolympia.com","geo_lat":"45.914735","geo_lng":"-74.124605","top_elevation":null,"bottom_elevation":null,"vertical_drop":null,"operating_status":"1","has_downhill":true,"has_nordic":false},"Region":[{"name":"Quebec","id":"327","RegionsSkiArea":{"id":"73","ski_area_id":"73","region_id":"327","temp_region":"52","temp_country":"31"}}]},{"SkiArea":{"id":"74","name":"Gray Rocks","official_website":"http:\/\/www.grayrocks.com","geo_lat":"46.163405","geo_lng":"-74.588629","top_elevation":null,"bottom_elevation":null,"vertical_drop":null,"operating_status":"2","has_downhill":true,"has_nordic":false},"Region":[{"name":"Quebec","id":"327","RegionsSkiArea":{"id":"74","ski_area_id":"74","region_id":"327","temp_region":"52","temp_country":"31"}}]},{"SkiArea":{"id":"75","name":"Mont Orignal","official_website":"http:\/\/www.montorignal.com","geo_lat":"46.409119","geo_lng":"-70.585196","top_elevation":null,"bottom_elevation":null,"vertical_drop":null,"operating_status":"1","has_downhill":true,"has_nordic":true},"Region":[{"name":"Quebec","id":"327","RegionsSkiArea":{"id":"75","ski_area_id":"75","region_id":"327","temp_region":"52","temp_country":"31"}}]},{"SkiArea":{"id":"76","name":"Mont Shefford","official_website":"http:\/\/www.montshefford.com","geo_lat":"45.3786786363231","geo_lng":"-72.6091575622559","top_elevation":null,"bottom_elevation":null,"vertical_drop":null,"operating_status":"2","has_downhill":true,"has_nordic":false},"Region":[{"name":"Quebec","id":"327","RegionsSkiArea":{"id":"76","ski_area_id":"76","region_id":"327","temp_region":"52","temp_country":"31"}}]},{"SkiArea":{"id":"77","name":"Sommet Morin Heights","official_website":"http:\/\/www.skimorinheights.com\/","geo_lat":"45.89874","geo_lng":"-74.268427","top_elevation":null,"bottom_elevation":null,"vertical_drop":null,"operating_status":"1","has_downhill":true,"has_nordic":false},"Region":[{"name":"Quebec","id":"327","RegionsSkiArea":{"id":"77","ski_area_id":"77","region_id":"327","temp_region":"52","temp_country":"31"}}]},{"SkiArea":{"id":"78","name":"Le Relais","official_website":"http:\/\/www.skirelais.com","geo_lat":"46.936944444444","geo_lng":"-71.2975","top_elevation":null,"bottom_elevation":null,"vertical_drop":null,"operating_status":"1","has_downhill":true,"has_nordic":false},"Region":[{"name":"Quebec","id":"327","RegionsSkiArea":{"id":"78","ski_area_id":"78","region_id":"327","temp_region":"52","temp_country":"31"}}]},{"SkiArea":{"id":"79","name":"Ski Bromont","official_website":"http:\/\/www.skibromont.com","geo_lat":"45.299681","geo_lng":"-72.636284","top_elevation":null,"bottom_elevation":null,"vertical_drop":null,"operating_status":"1","has_downhill":true,"has_nordic":false},"Region":[{"name":"Quebec","id":"327","RegionsSkiArea":{"id":"79","ski_area_id":"79","region_id":"327","temp_region":"52","temp_country":"31"}}]},{"SkiArea":{"id":"81","name":"Mont Ti-Basse","official_website":"http:\/\/www.ville.baie-comeau.qc.ca\/en\/living\/leisure\/activities\/ski\/","geo_lat":"49.2893623841344","geo_lng":"-68.1672477722168","top_elevation":null,"bottom_elevation":null,"vertical_drop":null,"operating_status":"1","has_downhill":false,"has_nordic":false},"Region":[{"name":"Quebec","id":"327","RegionsSkiArea":{"id":"81","ski_area_id":"81","region_id":"327","temp_region":"52","temp_country":"31"}}]},{"SkiArea":{"id":"82","name":"Owl's Head","official_website":"http:\/\/www.owlshead.com","geo_lat":"45.075142","geo_lng":"-72.295041","top_elevation":null,"bottom_elevation":null,"vertical_drop":null,"operating_status":"1","has_downhill":true,"has_nordic":false},"Region":[{"name":"Quebec","id":"327","RegionsSkiArea":{"id":"82","ski_area_id":"82","region_id":"327","temp_region":"52","temp_country":"31"}}]},{"SkiArea":{"id":"83","name":"Montjoye (Mont Hatley)","official_website":"https:\/\/monthatley.com\/accueil\/activites-hivernales\/","geo_lat":"45.302529","geo_lng":"-71.932362","top_elevation":null,"bottom_elevation":null,"vertical_drop":null,"operating_status":"1","has_downhill":true,"has_nordic":false},"Region":[{"name":"Quebec","id":"327","RegionsSkiArea":{"id":"83","ski_area_id":"83","region_id":"327","temp_region":"52","temp_country":"31"}}]},{"SkiArea":{"id":"84","name":"Mont Grand Fonds","official_website":"http:\/\/www.montgrandfonds.com","geo_lat":"47.7712912765771","geo_lng":"-70.103759765625","top_elevation":null,"bottom_elevation":null,"vertical_drop":null,"operating_status":"1","has_downhill":true,"has_nordic":true},"Region":[{"name":"Quebec","id":"327","RegionsSkiArea":{"id":"84","ski_area_id":"84","region_id":"327","temp_region":"52","temp_country":"31"}}]},{"SkiArea":{"id":"85","name":"Mont Saint-Sauveur","official_website":"http:\/\/www.montsaintsauveur.com","geo_lat":"45.884004","geo_lng":"-74.15351","top_elevation":null,"bottom_elevation":null,"vertical_drop":null,"operating_status":"1","has_downhill":true,"has_nordic":false},"Region":[{"name":"Quebec","id":"327","RegionsSkiArea":{"id":"85","ski_area_id":"85","region_id":"327","temp_region":"52","temp_country":"31"}}]},{"SkiArea":{"id":"87","name":"Mont-Sainte-Anne","official_website":"http:\/\/www.mont-sainte-anne.com","geo_lat":"47.086177956452","geo_lng":"-70.92971450805663","top_elevation":"800","bottom_elevation":null,"vertical_drop":"625","operating_status":"1","has_downhill":true,"has_nordic":true},"Region":[{"name":"Quebec","id":"327","RegionsSkiArea":{"id":"87","ski_area_id":"87","region_id":"327","temp_region":"52","temp_country":"31"}}]},{"SkiArea":{"id":"88","name":"Mont Cascades","official_website":"http:\/\/www.montcascades.ca","geo_lat":"45.592882","geo_lng":"-75.849331","top_elevation":null,"bottom_elevation":null,"vertical_drop":null,"operating_status":"1","has_downhill":true,"has_nordic":false},"Region":[{"name":"Quebec","id":"327","RegionsSkiArea":{"id":"88","ski_area_id":"88","region_id":"327","temp_region":"52","temp_country":"31"}}]},{"SkiArea":{"id":"89","name":"Parc du Mont-Comi","official_website":"http:\/\/www.mont-comi.qc.ca","geo_lat":"48.468094","geo_lng":"-68.19516","top_elevation":null,"bottom_elevation":null,"vertical_drop":null,"operating_status":"1","has_downhill":true,"has_nordic":false},"Region":[{"name":"Quebec","id":"327","RegionsSkiArea":{"id":"89","ski_area_id":"89","region_id":"327","temp_region":"52","temp_country":"31"}}]},{"SkiArea":{"id":"90","name":"Mont Sutton","official_website":"http:\/\/www.montsutton.com","geo_lat":"45.104657","geo_lng":"-72.561696","top_elevation":null,"bottom_elevation":null,"vertical_drop":null,"operating_status":"1","has_downhill":true,"has_nordic":false},"Region":[{"name":"Quebec","id":"327","RegionsSkiArea":{"id":"90","ski_area_id":"90","region_id":"327","temp_region":"52","temp_country":"31"}}]},{"SkiArea":{"id":"91","name":"Mont Orford","official_website":"http:\/\/www.orford.com","geo_lat":"45.318594","geo_lng":"-72.220112","top_elevation":null,"bottom_elevation":null,"vertical_drop":null,"operating_status":"1","has_downhill":true,"has_nordic":true},"Region":[{"name":"Quebec","id":"327","RegionsSkiArea":{"id":"91","ski_area_id":"91","region_id":"327","temp_region":"52","temp_country":"31"}}]},{"SkiArea":{"id":"92","name":"Mont Ste-Marie","official_website":"http:\/\/www.montstemarie.com","geo_lat":"45.942087","geo_lng":"-75.873412","top_elevation":null,"bottom_elevation":null,"vertical_drop":null,"operating_status":"1","has_downhill":true,"has_nordic":false},"Region":[{"name":"Quebec","id":"327","RegionsSkiArea":{"id":"92","ski_area_id":"92","region_id":"327","temp_region":"52","temp_country":"31"}}]},{"SkiArea":{"id":"93","name":"Mont Video","official_website":"https:\/\/www.montvideo.ca\/accueil1","geo_lat":"48.4192328862364","geo_lng":"-77.7769374847412","top_elevation":null,"bottom_elevation":null,"vertical_drop":null,"operating_status":"1","has_downhill":true,"has_nordic":false},"Region":[{"name":"Quebec","id":"327","RegionsSkiArea":{"id":"93","ski_area_id":"93","region_id":"327","temp_region":"52","temp_country":"31"}}]},{"SkiArea":{"id":"94","name":"Val Saint-Come","official_website":"http:\/\/www.valsaintcome.com","geo_lat":"46.271412","geo_lng":"-73.871179","top_elevation":"600","bottom_elevation":"300","vertical_drop":"300","operating_status":"1","has_downhill":true,"has_nordic":false},"Region":[{"name":"Quebec","id":"327","RegionsSkiArea":{"id":"94","ski_area_id":"94","region_id":"327","temp_region":"52","temp_country":"31"}}]},{"SkiArea":{"id":"95","name":"Massif du Sud","official_website":"http:\/\/www.massifdusud.net","geo_lat":"46.621279","geo_lng":"-70.490704","top_elevation":null,"bottom_elevation":null,"vertical_drop":null,"operating_status":"1","has_downhill":true,"has_nordic":true},"Region":[{"name":"Quebec","id":"327","RegionsSkiArea":{"id":"95","ski_area_id":"95","region_id":"327","temp_region":"52","temp_country":"31"}}]},{"SkiArea":{"id":"96","name":"Le Massif de Charlevoix","official_website":"http:\/\/www.lemassif.com","geo_lat":"47.27852969019212","geo_lng":"-70.5938249136405","top_elevation":"806","bottom_elevation":"36","vertical_drop":"770","operating_status":"1","has_downhill":true,"has_nordic":true},"Region":[{"name":"Quebec","id":"327","RegionsSkiArea":{"id":"96","ski_area_id":"96","region_id":"327","temp_region":"52","temp_country":"31"}}]},{"SkiArea":{"id":"97","name":"Mont Alta","official_website":"http:\/\/www.mont-alta.com","geo_lat":"46.03973803269116","geo_lng":"-74.23671679178904","top_elevation":null,"bottom_elevation":null,"vertical_drop":null,"operating_status":"1","has_downhill":true,"has_nordic":false},"Region":[{"name":"Quebec","id":"327","RegionsSkiArea":{"id":"97","ski_area_id":"97","region_id":"327","temp_region":"52","temp_country":"31"}}]},{"SkiArea":{"id":"98","name":"Mont Blanc","official_website":"http:\/\/www.skimontblanc.com","geo_lat":"46.108859","geo_lng":"-74.482543","top_elevation":null,"bottom_elevation":null,"vertical_drop":null,"operating_status":"1","has_downhill":true,"has_nordic":false},"Region":[{"name":"Quebec","id":"327","RegionsSkiArea":{"id":"98","ski_area_id":"98","region_id":"327","temp_region":"52","temp_country":"31"}}]},{"SkiArea":{"id":"99","name":"La Vallee du Parc","official_website":"http:\/\/www.valleeduparc.qc.ca\/","geo_lat":"46.61495","geo_lng":"-72.800412","top_elevation":null,"bottom_elevation":null,"vertical_drop":null,"operating_status":"1","has_downhill":true,"has_nordic":true},"Region":[{"name":"Quebec","id":"327","RegionsSkiArea":{"id":"99","ski_area_id":"99","region_id":"327","temp_region":"52","temp_country":"31"}}]},{"SkiArea":{"id":"100","name":"Stoneham Ski Resort","official_website":"http:\/\/www.ski-stoneham.com","geo_lat":"47.03","geo_lng":"-71.388333333333","top_elevation":null,"bottom_elevation":null,"vertical_drop":null,"operating_status":"1","has_downhill":true,"has_nordic":false},"Region":[{"name":"Quebec","id":"327","RegionsSkiArea":{"id":"100","ski_area_id":"100","region_id":"327","temp_region":"52","temp_country":"31"}}]},{"SkiArea":{"id":"101","name":"Mont Tremblant","official_website":"http:\/\/www.tremblant.ca","geo_lat":"46.219128995733","geo_lng":"-74.556450416214","top_elevation":null,"bottom_elevation":null,"vertical_drop":null,"operating_status":"1","has_downhill":true,"has_nordic":false},"Region":[{"name":"Quebec","id":"327","RegionsSkiArea":{"id":"101","ski_area_id":"101","region_id":"327","temp_region":"52","temp_country":"31"}}]},{"SkiArea":{"id":"102","name":"Vallee Bleue","official_website":"http:\/\/www.vallee-bleue.com","geo_lat":"46.025534","geo_lng":"-74.21839","top_elevation":null,"bottom_elevation":null,"vertical_drop":null,"operating_status":"1","has_downhill":true,"has_nordic":false},"Region":[{"name":"Quebec","id":"327","RegionsSkiArea":{"id":"102","ski_area_id":"102","region_id":"327","temp_region":"52","temp_country":"31"}}]},{"SkiArea":{"id":"103","name":"Val D'Irene","official_website":"http:\/\/www.val-direne.com","geo_lat":"48.472095","geo_lng":"-67.570776","top_elevation":null,"bottom_elevation":null,"vertical_drop":null,"operating_status":"1","has_downhill":true,"has_nordic":true},"Region":[{"name":"Quebec","id":"327","RegionsSkiArea":{"id":"103","ski_area_id":"103","region_id":"327","temp_region":"52","temp_country":"31"}}]},{"SkiArea":{"id":"104","name":"Mont Habitant","official_website":"http:\/\/www.monthabitant.com","geo_lat":"45.880801","geo_lng":"-74.176905","top_elevation":null,"bottom_elevation":null,"vertical_drop":null,"operating_status":"1","has_downhill":true,"has_nordic":false},"Region":[{"name":"Quebec","id":"327","RegionsSkiArea":{"id":"104","ski_area_id":"104","region_id":"327","temp_region":"52","temp_country":"31"}}]},{"SkiArea":{"id":"105","name":"Belle Neige","official_website":"http:\/\/www.belleneige.com\/","geo_lat":"45.999465865306","geo_lng":"-74.2129039764404","top_elevation":null,"bottom_elevation":null,"vertical_drop":null,"operating_status":"1","has_downhill":true,"has_nordic":false},"Region":[{"name":"Quebec","id":"327","RegionsSkiArea":{"id":"105","ski_area_id":"105","region_id":"327","temp_region":"52","temp_country":"31"}}]},{"SkiArea":{"id":"106","name":"Mont Gabriel","official_website":"http:\/\/www.skimontgabriel.com","geo_lat":"45.924022","geo_lng":"-74.154055","top_elevation":null,"bottom_elevation":null,"vertical_drop":null,"operating_status":"1","has_downhill":true,"has_nordic":false},"Region":[{"name":"Quebec","id":"327","RegionsSkiArea":{"id":"106","ski_area_id":"106","region_id":"327","temp_region":"52","temp_country":"31"}}]},{"SkiArea":{"id":"107","name":"Mont Fortin","official_website":"http:\/\/www.skisurfsaglac.qc.ca\/emplacement-mont-fortin.html","geo_lat":"48.435885","geo_lng":"-71.225815","top_elevation":null,"bottom_elevation":null,"vertical_drop":null,"operating_status":"1","has_downhill":true,"has_nordic":false},"Region":[{"name":"Quebec","id":"327","RegionsSkiArea":{"id":"107","ski_area_id":"107","region_id":"327","temp_region":"52","temp_country":"31"}}]},{"SkiArea":{"id":"108","name":"Mont Garceau","official_website":"http:\/\/skigarceau.com","geo_lat":"46.336859","geo_lng":"-74.219402","top_elevation":null,"bottom_elevation":null,"vertical_drop":null,"operating_status":"1","has_downhill":true,"has_nordic":true},"Region":[{"name":"Quebec","id":"327","RegionsSkiArea":{"id":"108","ski_area_id":"108","region_id":"327","temp_region":"52","temp_country":"31"}}]},{"SkiArea":{"id":"109","name":"Camp Fortune","official_website":"http:\/\/www.campfortune.com","geo_lat":"45.509","geo_lng":"-75.851","top_elevation":null,"bottom_elevation":null,"vertical_drop":null,"operating_status":"1","has_downhill":true,"has_nordic":false},"Region":[{"name":"Quebec","id":"327","RegionsSkiArea":{"id":"109","ski_area_id":"109","region_id":"327","temp_region":"52","temp_country":"31"}}]},{"SkiArea":{"id":"110","name":"Ski Vorlage","official_website":"http:\/\/www.skivorlage.com","geo_lat":"45.645088","geo_lng":"-75.935552","top_elevation":null,"bottom_elevation":null,"vertical_drop":null,"operating_status":"1","has_downhill":true,"has_nordic":false},"Region":[{"name":"Quebec","id":"327","RegionsSkiArea":{"id":"110","ski_area_id":"110","region_id":"327","temp_region":"52","temp_country":"31"}}]},{"SkiArea":{"id":"111","name":"Calabogie Peaks","official_website":"http:\/\/www.calabogie.com\/","geo_lat":"45.274399","geo_lng":"-76.782739","top_elevation":null,"bottom_elevation":null,"vertical_drop":null,"operating_status":"1","has_downhill":true,"has_nordic":false},"Region":[{"name":"Ontario","id":"326","RegionsSkiArea":{"id":"111","ski_area_id":"111","region_id":"326","temp_region":"51","temp_country":"31"}}]},{"SkiArea":{"id":"112","name":"Glen Eden","official_website":"http:\/\/www.gleneden.on.ca\/","geo_lat":"43.5040676154253","geo_lng":"-79.9463939666748","top_elevation":null,"bottom_elevation":null,"vertical_drop":"72","operating_status":"1","has_downhill":true,"has_nordic":false},"Region":[{"name":"Ontario","id":"326","RegionsSkiArea":{"id":"112","ski_area_id":"112","region_id":"326","temp_region":"51","temp_country":"31"}}]},{"SkiArea":{"id":"113","name":"Blue Mountain","official_website":"http:\/\/www.bluemountain.ca\/","geo_lat":"44.49711755234289","geo_lng":"-80.31160354614258","top_elevation":"452","bottom_elevation":"226","vertical_drop":"219","operating_status":"1","has_downhill":true,"has_nordic":false},"Region":[{"name":"Ontario","id":"326","RegionsSkiArea":{"id":"113","ski_area_id":"113","region_id":"326","temp_region":"51","temp_country":"31"}}]},{"SkiArea":{"id":"114","name":"Pine Ridge Ski Club","official_website":"http:\/\/www.pineridgeskiclub.ca\/","geo_lat":"44.563705","geo_lng":"-79.664486","top_elevation":null,"bottom_elevation":null,"vertical_drop":null,"operating_status":"2","has_downhill":true,"has_nordic":false},"Region":[{"name":"Ontario","id":"326","RegionsSkiArea":{"id":"114","ski_area_id":"114","region_id":"326","temp_region":"51","temp_country":"31"}}]},{"SkiArea":{"id":"115","name":"Talisman Mountain Resort","official_website":"","geo_lat":"44.391189","geo_lng":"-80.54633","top_elevation":null,"bottom_elevation":null,"vertical_drop":null,"operating_status":"2","has_downhill":true,"has_nordic":false},"Region":[{"name":"Ontario","id":"326","RegionsSkiArea":{"id":"115","ski_area_id":"115","region_id":"326","temp_region":"51","temp_country":"31"}}]},{"SkiArea":{"id":"116","name":"Mt. Chinguacousy Ski and Snowboard Hill","official_website":"http:\/\/www.brampton.ca\/parks-rec\/catalogue\/skiing.tml","geo_lat":"43.728368","geo_lng":"-79.725088","top_elevation":null,"bottom_elevation":null,"vertical_drop":null,"operating_status":"1","has_downhill":true,"has_nordic":false},"Region":[{"name":"Ontario","id":"326","RegionsSkiArea":{"id":"116","ski_area_id":"116","region_id":"326","temp_region":"51","temp_country":"31"}}]},{"SkiArea":{"id":"117","name":"Ski Lakeridge","official_website":"http:\/\/www.ski-lakeridge.com\/","geo_lat":"44.026957","geo_lng":"-79.061474","top_elevation":null,"bottom_elevation":null,"vertical_drop":null,"operating_status":"1","has_downhill":true,"has_nordic":false},"Region":[{"name":"Ontario","id":"326","RegionsSkiArea":{"id":"117","ski_area_id":"117","region_id":"326","temp_region":"51","temp_country":"31"}}]},{"SkiArea":{"id":"118","name":"Mount Pakenham","official_website":"http:\/\/www.mountpakenham.com\/","geo_lat":"45.320555555556","geo_lng":"-76.338055555556","top_elevation":null,"bottom_elevation":null,"vertical_drop":null,"operating_status":"1","has_downhill":true,"has_nordic":true},"Region":[{"name":"Ontario","id":"326","RegionsSkiArea":{"id":"118","ski_area_id":"118","region_id":"326","temp_region":"51","temp_country":"31"}}]},{"SkiArea":{"id":"119","name":"Mount Jamieson (Kamiskotia)","official_website":"https:\/\/mountjamieson.ca\/","geo_lat":"48.533759","geo_lng":"-81.541444","top_elevation":null,"bottom_elevation":null,"vertical_drop":null,"operating_status":"1","has_downhill":true,"has_nordic":false},"Region":[{"name":"Ontario","id":"326","RegionsSkiArea":{"id":"119","ski_area_id":"119","region_id":"326","temp_region":"51","temp_country":"31"}}]},{"SkiArea":{"id":"120","name":"Onaping Ski Hill","official_website":"https:\/\/www.facebook.com\/Onaping-Ski-Hill-188413781186039\/","geo_lat":"46.626789","geo_lng":"-81.403762","top_elevation":null,"bottom_elevation":null,"vertical_drop":null,"operating_status":"2","has_downhill":true,"has_nordic":false},"Region":[{"name":"Ontario","id":"326","RegionsSkiArea":{"id":"120","ski_area_id":"120","region_id":"326","temp_region":"51","temp_country":"31"}}]},{"SkiArea":{"id":"121","name":"Brimacombe (Oshawa Ski Club)","official_website":"http:\/\/www.oshawaskiclub.com","geo_lat":"44.022416","geo_lng":"-78.57644","top_elevation":null,"bottom_elevation":null,"vertical_drop":null,"operating_status":"1","has_downhill":true,"has_nordic":false},"Region":[{"name":"Ontario","id":"326","RegionsSkiArea":{"id":"121","ski_area_id":"121","region_id":"326","temp_region":"51","temp_country":"31"}}]},{"SkiArea":{"id":"122","name":"Mountain View","official_website":"http:\/\/www.mountainviewmidland.com\/","geo_lat":"44.734348","geo_lng":"-79.920158","top_elevation":null,"bottom_elevation":null,"vertical_drop":null,"operating_status":"1","has_downhill":true,"has_nordic":true},"Region":[{"name":"Ontario","id":"326","RegionsSkiArea":{"id":"122","ski_area_id":"122","region_id":"326","temp_region":"51","temp_country":"31"}}]},{"SkiArea":{"id":"123","name":"Hockley Valley Resort","official_website":"http:\/\/www.hockley.com\/","geo_lat":"43.97767","geo_lng":"-80.046278","top_elevation":null,"bottom_elevation":null,"vertical_drop":null,"operating_status":"1","has_downhill":true,"has_nordic":false},"Region":[{"name":"Ontario","id":"326","RegionsSkiArea":{"id":"123","ski_area_id":"123","region_id":"326","temp_region":"51","temp_country":"31"}}]},{"SkiArea":{"id":"124","name":"North York Ski Centre (Earl Bales)","official_website":"http:\/\/www.toronto.ca\/parks\/recreation_facilities\/skiing\/northyorkski.htm","geo_lat":"43.753089","geo_lng":"-79.432847","top_elevation":null,"bottom_elevation":null,"vertical_drop":null,"operating_status":"1","has_downhill":true,"has_nordic":false},"Region":[{"name":"Ontario","id":"326","RegionsSkiArea":{"id":"124","ski_area_id":"124","region_id":"326","temp_region":"51","temp_country":"31"}}]},{"SkiArea":{"id":"125","name":"Boler Mountain (London Ski Club)","official_website":"http:\/\/www.bolermountain.com\/","geo_lat":"42.9447374222506","geo_lng":"-81.3376665115356","top_elevation":null,"bottom_elevation":null,"vertical_drop":null,"operating_status":"1","has_downhill":true,"has_nordic":false},"Region":[{"name":"Ontario","id":"326","RegionsSkiArea":{"id":"125","ski_area_id":"125","region_id":"326","temp_region":"51","temp_country":"31"}}]},{"SkiArea":{"id":"126","name":"Mansfield Ski Club","official_website":"http:\/\/www.mansfieldskiclub.com","geo_lat":"44.201103","geo_lng":"-80.054707","top_elevation":null,"bottom_elevation":null,"vertical_drop":"440","operating_status":"1","has_downhill":true,"has_nordic":false},"Region":[{"name":"Ontario","id":"326","RegionsSkiArea":{"id":"126","ski_area_id":"126","region_id":"326","temp_region":"51","temp_country":"31"}}]},{"SkiArea":{"id":"127","name":"Mount Dufour","official_website":"http:\/\/www.mountdufour.com","geo_lat":"46.3858989385776","geo_lng":"-82.6354265213013","top_elevation":null,"bottom_elevation":null,"vertical_drop":null,"operating_status":"1","has_downhill":true,"has_nordic":false},"Region":[{"name":"Ontario","id":"326","RegionsSkiArea":{"id":"127","ski_area_id":"127","region_id":"326","temp_region":"51","temp_country":"31"}}]},{"SkiArea":{"id":"128","name":"Heyden Ski Hill & Resort","official_website":"","geo_lat":"46.6436028317519","geo_lng":"-84.3119144439697","top_elevation":null,"bottom_elevation":null,"vertical_drop":null,"operating_status":"2","has_downhill":true,"has_nordic":false},"Region":[{"name":"Ontario","id":"326","RegionsSkiArea":{"id":"128","ski_area_id":"128","region_id":"326","temp_region":"51","temp_country":"31"}}]},{"SkiArea":{"id":"129","name":"Alpine Ski Club","official_website":"http:\/\/www.alpineskiclub.com\/","geo_lat":"44.521374263359","geo_lng":"-80.353228398219","top_elevation":null,"bottom_elevation":null,"vertical_drop":null,"operating_status":"1","has_downhill":true,"has_nordic":false},"Region":[{"name":"Ontario","id":"326","RegionsSkiArea":{"id":"129","ski_area_id":"129","region_id":"326","temp_region":"51","temp_country":"31"}}]},{"SkiArea":{"id":"130","name":"Tri-Town Ski Village","official_website":"http:\/\/tritownskivillage.com\/","geo_lat":"47.362315785482","geo_lng":"-79.57011222839355","top_elevation":null,"bottom_elevation":null,"vertical_drop":null,"operating_status":"1","has_downhill":true,"has_nordic":false},"Region":[{"name":"Ontario","id":"326","RegionsSkiArea":{"id":"130","ski_area_id":"130","region_id":"326","temp_region":"51","temp_country":"31"}}]},{"SkiArea":{"id":"131","name":"Horseshoe Resort","official_website":"http:\/\/www.horseshoeresort.com","geo_lat":"44.547528","geo_lng":"-79.671957","top_elevation":"406","bottom_elevation":"312","vertical_drop":"94","operating_status":"1","has_downhill":true,"has_nordic":true},"Region":[{"name":"Ontario","id":"326","RegionsSkiArea":{"id":"131","ski_area_id":"131","region_id":"326","temp_region":"51","temp_country":"31"}}]},{"SkiArea":{"id":"132","name":"Mount St. Louis Moonstone","official_website":"http:\/\/www.mslm.on.ca\/","geo_lat":"44.622961","geo_lng":"-79.666407","top_elevation":null,"bottom_elevation":null,"vertical_drop":"168","operating_status":"1","has_downhill":true,"has_nordic":false},"Region":[{"name":"Ontario","id":"326","RegionsSkiArea":{"id":"132","ski_area_id":"132","region_id":"326","temp_region":"51","temp_country":"31"}}]},{"SkiArea":{"id":"133","name":"Alice Hill Park (Pembroke Ski Club)","official_website":"http:\/\/www.pembrokeskiclub.com\/","geo_lat":"45.732144","geo_lng":"-77.346057","top_elevation":null,"bottom_elevation":null,"vertical_drop":null,"operating_status":"1","has_downhill":true,"has_nordic":false},"Region":[{"name":"Ontario","id":"326","RegionsSkiArea":{"id":"133","ski_area_id":"133","region_id":"326","temp_region":"51","temp_country":"31"}}]},{"SkiArea":{"id":"134","name":"Beaver Valley","official_website":"https:\/\/www.beavervalley.ca\/","geo_lat":"44.358933","geo_lng":"-80.544766","top_elevation":null,"bottom_elevation":null,"vertical_drop":null,"operating_status":"1","has_downhill":true,"has_nordic":false},"Region":[{"name":"Ontario","id":"326","RegionsSkiArea":{"id":"134","ski_area_id":"134","region_id":"326","temp_region":"51","temp_country":"31"}}]},{"SkiArea":{"id":"135","name":"Ski Snow Valley Barrie","official_website":"http:\/\/www.skisnowvalley.com\/","geo_lat":"44.41060828949042","geo_lng":"-79.79061126708986","top_elevation":null,"bottom_elevation":null,"vertical_drop":null,"operating_status":"1","has_downhill":true,"has_nordic":false},"Region":[{"name":"Ontario","id":"326","RegionsSkiArea":{"id":"135","ski_area_id":"135","region_id":"326","temp_region":"51","temp_country":"31"}}]},{"SkiArea":{"id":"136","name":"Hidden Valley Highlands","official_website":"http:\/\/www.skihiddenvalley.on.ca\/","geo_lat":"45.35612768267574","geo_lng":"-79.12968361434935","top_elevation":null,"bottom_elevation":null,"vertical_drop":null,"operating_status":"1","has_downhill":true,"has_nordic":false},"Region":[{"name":"Ontario","id":"326","RegionsSkiArea":{"id":"136","ski_area_id":"136","region_id":"326","temp_region":"51","temp_country":"31"}}]},{"SkiArea":{"id":"137","name":"Mount Baldy","official_website":"http:\/\/www.skimountbaldy.ca","geo_lat":"48.52559874791694","geo_lng":"-89.12828765869142","top_elevation":null,"bottom_elevation":null,"vertical_drop":"145","operating_status":"1","has_downhill":true,"has_nordic":false},"Region":[{"name":"Ontario","id":"326","RegionsSkiArea":{"id":"137","ski_area_id":"137","region_id":"326","temp_region":"51","temp_country":"31"}}]},{"SkiArea":{"id":"138","name":"Loch Lomond Ski Area","official_website":"http:\/\/www.lochlomond.ca\/","geo_lat":"48.294056","geo_lng":"-89.346744","top_elevation":"442","bottom_elevation":"213","vertical_drop":"228","operating_status":"1","has_downhill":true,"has_nordic":true},"Region":[{"name":"Ontario","id":"326","RegionsSkiArea":{"id":"138","ski_area_id":"138","region_id":"326","temp_region":"51","temp_country":"31"}}]},{"SkiArea":{"id":"139","name":"Ski Dagmar","official_website":"http:\/\/www.skidagmar.com\/","geo_lat":"44.01243","geo_lng":"-79.057608","top_elevation":null,"bottom_elevation":null,"vertical_drop":null,"operating_status":"1","has_downhill":true,"has_nordic":true},"Region":[{"name":"Ontario","id":"326","RegionsSkiArea":{"id":"139","ski_area_id":"139","region_id":"326","temp_region":"51","temp_country":"31"}}]},{"SkiArea":{"id":"140","name":"Searchmont Resort","official_website":"http:\/\/www.searchmont.com\/","geo_lat":"46.769225","geo_lng":"-84.045481","top_elevation":null,"bottom_elevation":null,"vertical_drop":null,"operating_status":"1","has_downhill":true,"has_nordic":false},"Region":[{"name":"Ontario","id":"326","RegionsSkiArea":{"id":"140","ski_area_id":"140","region_id":"326","temp_region":"51","temp_country":"31"}}]},{"SkiArea":{"id":"141","name":"Cobble Hills Golf & Ski Club","official_website":"http:\/\/www.cobblehills.ca\/","geo_lat":"43.1089413631271","geo_lng":"-81.0647249221802","top_elevation":null,"bottom_elevation":null,"vertical_drop":null,"operating_status":"2","has_downhill":true,"has_nordic":false},"Region":[{"name":"Ontario","id":"326","RegionsSkiArea":{"id":"141","ski_area_id":"141","region_id":"326","temp_region":"51","temp_country":"31"}}]},{"SkiArea":{"id":"142","name":"Madawaska Valley (Radcliffe Hills)","official_website":"http:\/\/skithevalley.ca\/","geo_lat":"45.43676738098741","geo_lng":"-77.66218185424799","top_elevation":null,"bottom_elevation":null,"vertical_drop":null,"operating_status":"1","has_downhill":true,"has_nordic":false},"Region":[{"name":"Ontario","id":"326","RegionsSkiArea":{"id":"142","ski_area_id":"142","region_id":"326","temp_region":"51","temp_country":"31"}}]},{"SkiArea":{"id":"143","name":"Devil's Elbow","official_website":"http:\/\/www.devilselbow.com\/","geo_lat":"44.21996","geo_lng":"-78.575667","top_elevation":null,"bottom_elevation":null,"vertical_drop":null,"operating_status":"2","has_downhill":true,"has_nordic":false},"Region":[{"name":"Ontario","id":"326","RegionsSkiArea":{"id":"143","ski_area_id":"143","region_id":"326","temp_region":"51","temp_country":"31"}}]},{"SkiArea":{"id":"145","name":"Chicopee Ski Club","official_website":"http:\/\/www.discoverchicopee.com\/","geo_lat":"43.4352831845572","geo_lng":"-80.4184198379517","top_elevation":null,"bottom_elevation":null,"vertical_drop":null,"operating_status":"1","has_downhill":true,"has_nordic":false},"Region":[{"name":"Ontario","id":"326","RegionsSkiArea":{"id":"145","ski_area_id":"145","region_id":"326","temp_region":"51","temp_country":"31"}}]},{"SkiArea":{"id":"146","name":"Skyloft Ski & Country Club","official_website":"http:\/\/www.skyloft.com\/","geo_lat":"44.030016","geo_lng":"-79.075621","top_elevation":null,"bottom_elevation":null,"vertical_drop":null,"operating_status":"1","has_downhill":true,"has_nordic":false},"Region":[{"name":"Ontario","id":"326","RegionsSkiArea":{"id":"146","ski_area_id":"146","region_id":"326","temp_region":"51","temp_country":"31"}}]},{"SkiArea":{"id":"147","name":"Sir Sam's Ski Area","official_website":"http:\/\/www.sirsams.com\/","geo_lat":"45.129858","geo_lng":"-78.483072","top_elevation":null,"bottom_elevation":null,"vertical_drop":null,"operating_status":"1","has_downhill":true,"has_nordic":false},"Region":[{"name":"Ontario","id":"326","RegionsSkiArea":{"id":"147","ski_area_id":"147","region_id":"326","temp_region":"51","temp_country":"31"}}]},{"SkiArea":{"id":"148","name":"White Pine Ski Area","official_website":"http:\/\/www.whitepineski.com\/","geo_lat":"42.9773998438591","geo_lng":"-109.758224487305","top_elevation":"2895","bottom_elevation":null,"vertical_drop":null,"operating_status":"1","has_downhill":true,"has_nordic":false},"Region":[{"name":"Wyoming","id":"325","RegionsSkiArea":{"id":"148","ski_area_id":"148","region_id":"325","temp_region":"50","temp_country":"184"}}]},{"SkiArea":{"id":"149","name":"Meadowlark Ski Lodge (Big Horn Ski Resort)","official_website":"http:\/\/www.lodgesofthebighorns.com\/meadowlark-ski-lodge-wyoming.php","geo_lat":"44.1634893281213","geo_lng":"-107.217292785645","top_elevation":null,"bottom_elevation":null,"vertical_drop":null,"operating_status":"1","has_downhill":true,"has_nordic":false},"Region":[{"name":"Wyoming","id":"325","RegionsSkiArea":{"id":"149","ski_area_id":"149","region_id":"325","temp_region":"50","temp_country":"184"}}]},{"SkiArea":{"id":"150","name":"Grand Targhee Ski Resort","official_website":"","geo_lat":"43.783809324708","geo_lng":"-110.94663929382","top_elevation":null,"bottom_elevation":null,"vertical_drop":null,"operating_status":"1","has_downhill":true,"has_nordic":false},"Region":[{"name":"Wyoming","id":"325","RegionsSkiArea":{"id":"150","ski_area_id":"150","region_id":"325","temp_region":"50","temp_country":"184"}}]},{"SkiArea":{"id":"151","name":"Jackson Hole Mountain Resort","official_website":"http:\/\/www.jacksonhole.com","geo_lat":"43.594884839631","geo_lng":"-110.84408772671","top_elevation":"3185","bottom_elevation":"1924","vertical_drop":"1262","operating_status":"1","has_downhill":true,"has_nordic":true},"Region":[{"name":"Wyoming","id":"325","RegionsSkiArea":{"id":"151","ski_area_id":"151","region_id":"325","temp_region":"50","temp_country":"184"}}]},{"SkiArea":{"id":"152","name":"Hogadon Ski Area","official_website":null,"geo_lat":"42.744961111111","geo_lng":"-106.33942777778","top_elevation":null,"bottom_elevation":null,"vertical_drop":null,"operating_status":"1","has_downhill":false,"has_nordic":false},"Region":[{"name":"Wyoming","id":"325","RegionsSkiArea":{"id":"152","ski_area_id":"152","region_id":"325","temp_region":"50","temp_country":"184"}}]},{"SkiArea":{"id":"153","name":"Antelope Butte Ski Area","official_website":"https:\/\/www.antelopebuttefoundation.org\/the-mountain\/","geo_lat":"44.6114593839695","geo_lng":"-107.5147819519043","top_elevation":"2865","bottom_elevation":"1865","vertical_drop":"304","operating_status":"1","has_downhill":true,"has_nordic":false},"Region":[{"name":"Wyoming","id":"325","RegionsSkiArea":{"id":"153","ski_area_id":"153","region_id":"325","temp_region":"50","temp_country":"184"}}]},{"SkiArea":{"id":"154","name":"Sleeping Giant Ski Area","official_website":"http:\/\/www.skisg.com\/","geo_lat":"44.492005","geo_lng":"-109.941751","top_elevation":null,"bottom_elevation":null,"vertical_drop":null,"operating_status":"1","has_downhill":true,"has_nordic":false},"Region":[{"name":"Wyoming","id":"325","RegionsSkiArea":{"id":"154","ski_area_id":"154","region_id":"325","temp_region":"50","temp_country":"184"}}]},{"SkiArea":{"id":"155","name":"Snowy Range","official_website":"","geo_lat":"41.34126991586003","geo_lng":"-106.18317224290195","top_elevation":null,"bottom_elevation":null,"vertical_drop":null,"operating_status":"1","has_downhill":true,"has_nordic":false},"Region":[{"name":"Wyoming","id":"325","RegionsSkiArea":{"id":"155","ski_area_id":"155","region_id":"325","temp_region":"50","temp_country":"184"}}]},{"SkiArea":{"id":"156","name":"Snow King Ski Area","official_website":"","geo_lat":"43.469166666667","geo_lng":"-110.75083333333","top_elevation":null,"bottom_elevation":null,"vertical_drop":null,"operating_status":"1","has_downhill":true,"has_nordic":false},"Region":[{"name":"Wyoming","id":"325","RegionsSkiArea":{"id":"156","ski_area_id":"156","region_id":"325","temp_region":"50","temp_country":"184"}}]},{"SkiArea":{"id":"157","name":"Nordic Mountain","official_website":"","geo_lat":"44.12169857972283","geo_lng":"-89.18100357055664","top_elevation":null,"bottom_elevation":null,"vertical_drop":null,"operating_status":"1","has_downhill":true,"has_nordic":false},"Region":[{"name":"Wisconsin","id":"324","RegionsSkiArea":{"id":"157","ski_area_id":"157","region_id":"324","temp_region":"49","temp_country":"184"}}]},{"SkiArea":{"id":"158","name":"Whitecap Mountains","official_website":"","geo_lat":"46.407859877068454","geo_lng":"-90.39559364318848","top_elevation":null,"bottom_elevation":null,"vertical_drop":null,"operating_status":"1","has_downhill":true,"has_nordic":false},"Region":[{"name":"Wisconsin","id":"324","RegionsSkiArea":{"id":"158","ski_area_id":"158","region_id":"324","temp_region":"49","temp_country":"184"}}]},{"SkiArea":{"id":"159","name":"Trollhaugen Ski Area","official_website":null,"geo_lat":"45.3496118624493","geo_lng":"-92.621955871582","top_elevation":null,"bottom_elevation":null,"vertical_drop":null,"operating_status":"1","has_downhill":false,"has_nordic":false},"Region":[{"name":"Wisconsin","id":"324","RegionsSkiArea":{"id":"159","ski_area_id":"159","region_id":"324","temp_region":"49","temp_country":"184"}}]},{"SkiArea":{"id":"160","name":"Standing Rocks","official_website":"","geo_lat":"44.433550014618156","geo_lng":"-89.39851999282837","top_elevation":null,"bottom_elevation":null,"vertical_drop":null,"operating_status":"1","has_downhill":true,"has_nordic":true},"Region":[{"name":"Wisconsin","id":"324","RegionsSkiArea":{"id":"160","ski_area_id":"160","region_id":"324","temp_region":"49","temp_country":"184"}}]},{"SkiArea":{"id":"161","name":"Little Switzerland","official_website":"http:\/\/www.littleswitz.com\/","geo_lat":"43.3383","geo_lng":"-88.2807","top_elevation":null,"bottom_elevation":null,"vertical_drop":"61","operating_status":"1","has_downhill":true,"has_nordic":false},"Region":[{"name":"Wisconsin","id":"324","RegionsSkiArea":{"id":"161","ski_area_id":"161","region_id":"324","temp_region":"49","temp_country":"184"}}]},{"SkiArea":{"id":"162","name":"Tyrol Basin","official_website":"http:\/\/www.tyrolbasin.com","geo_lat":"43.042747222222","geo_lng":"-89.777719444444","top_elevation":"344","bottom_elevation":"265","vertical_drop":"79","operating_status":"1","has_downhill":false,"has_nordic":false},"Region":[{"name":"Wisconsin","id":"324","RegionsSkiArea":{"id":"162","ski_area_id":"162","region_id":"324","temp_region":"49","temp_country":"184"}}]},{"SkiArea":{"id":"163","name":"The Mountain Top at Grand Geneva Resort","official_website":null,"geo_lat":"42.6107800920452","geo_lng":"-88.3879280090332","top_elevation":null,"bottom_elevation":null,"vertical_drop":null,"operating_status":"1","has_downhill":false,"has_nordic":false},"Region":[{"name":"Wisconsin","id":"324","RegionsSkiArea":{"id":"163","ski_area_id":"163","region_id":"324","temp_region":"49","temp_country":"184"}}]},{"SkiArea":{"id":"164","name":"Bruce Mound Ski Area","official_website":"http:\/\/www.co.clark.wi.us\/index.aspx?nid=237","geo_lat":"44.445163","geo_lng":"-90.785354","top_elevation":null,"bottom_elevation":null,"vertical_drop":null,"operating_status":"1","has_downhill":true,"has_nordic":false},"Region":[{"name":"Wisconsin","id":"324","RegionsSkiArea":{"id":"164","ski_area_id":"164","region_id":"324","temp_region":"49","temp_country":"184"}}]},{"SkiArea":{"id":"165","name":"Wilmot Mountain","official_website":null,"geo_lat":"42.5","geo_lng":"-88.188888888889","top_elevation":null,"bottom_elevation":null,"vertical_drop":null,"operating_status":"1","has_downhill":false,"has_nordic":false},"Region":[{"name":"Wisconsin","id":"324","RegionsSkiArea":{"id":"165","ski_area_id":"165","region_id":"324","temp_region":"49","temp_country":"184"}}]},{"SkiArea":{"id":"166","name":"Christmas Mountain Village","official_website":null,"geo_lat":"43.6087366288434","geo_lng":"-89.8594093322754","top_elevation":null,"bottom_elevation":null,"vertical_drop":null,"operating_status":"1","has_downhill":false,"has_nordic":false},"Region":[{"name":"Wisconsin","id":"324","RegionsSkiArea":{"id":"166","ski_area_id":"166","region_id":"324","temp_region":"49","temp_country":"184"}}]},{"SkiArea":{"id":"167","name":"Highlands of Olympia","official_website":"","geo_lat":"43.08814819066048","geo_lng":"-88.47991107974855","top_elevation":null,"bottom_elevation":null,"vertical_drop":null,"operating_status":"2","has_downhill":true,"has_nordic":false},"Region":[{"name":"Wisconsin","id":"324","RegionsSkiArea":{"id":"167","ski_area_id":"167","region_id":"324","temp_region":"49","temp_country":"184"}}]},{"SkiArea":{"id":"168","name":"Mount Ashwabay","official_website":"http:\/\/www.mtashwabay.org\/","geo_lat":"46.781046","geo_lng":"-90.912407","top_elevation":"392","bottom_elevation":null,"vertical_drop":"97","operating_status":"1","has_downhill":true,"has_nordic":true},"Region":[{"name":"Wisconsin","id":"324","RegionsSkiArea":{"id":"168","ski_area_id":"168","region_id":"324","temp_region":"49","temp_country":"184"}}]},{"SkiArea":{"id":"169","name":"Alpine Valley Resort","official_website":"https:\/\/www.alpinevalleyresort.com\/","geo_lat":"42.74582000000004","geo_lng":"-88.42590999999999","top_elevation":null,"bottom_elevation":null,"vertical_drop":"118","operating_status":"1","has_downhill":true,"has_nordic":false},"Region":[{"name":"Wisconsin","id":"324","RegionsSkiArea":{"id":"169","ski_area_id":"169","region_id":"324","temp_region":"49","temp_country":"184"}}]},{"SkiArea":{"id":"170","name":"Granite Peak","official_website":null,"geo_lat":"44.928611111111","geo_lng":"-89.6825","top_elevation":null,"bottom_elevation":null,"vertical_drop":null,"operating_status":"1","has_downhill":false,"has_nordic":false},"Region":[{"name":"Wisconsin","id":"324","RegionsSkiArea":{"id":"170","ski_area_id":"170","region_id":"324","temp_region":"49","temp_country":"184"}}]},{"SkiArea":{"id":"171","name":"Mt. LaCrosse","official_website":"http:\/\/www.mtlacrosse.com\/","geo_lat":"43.7410263804292","geo_lng":"-91.182746887207","top_elevation":null,"bottom_elevation":null,"vertical_drop":null,"operating_status":"1","has_downhill":true,"has_nordic":false},"Region":[{"name":"Wisconsin","id":"324","RegionsSkiArea":{"id":"171","ski_area_id":"171","region_id":"324","temp_region":"49","temp_country":"184"}}]},{"SkiArea":{"id":"172","name":"Telemark Resort","official_website":"","geo_lat":"46.187882437823376","geo_lng":"-91.24802112579346","top_elevation":null,"bottom_elevation":null,"vertical_drop":null,"operating_status":"2","has_downhill":true,"has_nordic":true},"Region":[{"name":"Wisconsin","id":"324","RegionsSkiArea":{"id":"172","ski_area_id":"172","region_id":"324","temp_region":"49","temp_country":"184"}}]},{"SkiArea":{"id":"173","name":"Sunburst Ski Area","official_website":null,"geo_lat":"43.4938102020712","geo_lng":"-88.2241630554199","top_elevation":null,"bottom_elevation":null,"vertical_drop":null,"operating_status":"1","has_downhill":false,"has_nordic":false},"Region":[{"name":"Wisconsin","id":"324","RegionsSkiArea":{"id":"173","ski_area_id":"173","region_id":"324","temp_region":"49","temp_country":"184"}}]},{"SkiArea":{"id":"174","name":"Rock Snowpark (Crystal Ridge)","official_website":"https:\/\/www.rocksnowpark.com\/","geo_lat":"42.920417789135996","geo_lng":"-88.01628112792969","top_elevation":null,"bottom_elevation":null,"vertical_drop":null,"operating_status":"1","has_downhill":true,"has_nordic":false},"Region":[{"name":"Wisconsin","id":"324","RegionsSkiArea":{"id":"174","ski_area_id":"174","region_id":"324","temp_region":"49","temp_country":"184"}}]},{"SkiArea":{"id":"175","name":"Cascade Mountain","official_website":null,"geo_lat":"43.4990091695623","geo_lng":"-89.5147132873535","top_elevation":null,"bottom_elevation":null,"vertical_drop":null,"operating_status":"1","has_downhill":false,"has_nordic":false},"Region":[{"name":"Wisconsin","id":"324","RegionsSkiArea":{"id":"175","ski_area_id":"175","region_id":"324","temp_region":"49","temp_country":"184"}}]},{"SkiArea":{"id":"176","name":"Mont du Lac Ski Area","official_website":"","geo_lat":"46.652021","geo_lng":"-92.28433000000001","top_elevation":null,"bottom_elevation":null,"vertical_drop":null,"operating_status":"1","has_downhill":true,"has_nordic":false},"Region":[{"name":"Wisconsin","id":"324","RegionsSkiArea":{"id":"176","ski_area_id":"176","region_id":"324","temp_region":"49","temp_country":"184"}}]},{"SkiArea":{"id":"177","name":"Keyes Peak Ski Area","official_website":"","geo_lat":"45.89535475861722","geo_lng":"-88.29909324645996","top_elevation":null,"bottom_elevation":null,"vertical_drop":null,"operating_status":"1","has_downhill":true,"has_nordic":false},"Region":[{"name":"Wisconsin","id":"324","RegionsSkiArea":{"id":"177","ski_area_id":"177","region_id":"324","temp_region":"49","temp_country":"184"}}]},{"SkiArea":{"id":"178","name":"Christie Mountain Ski Area","official_website":null,"geo_lat":"45.5075499430853","geo_lng":"-91.3834190368652","top_elevation":null,"bottom_elevation":null,"vertical_drop":null,"operating_status":"1","has_downhill":false,"has_nordic":false},"Region":[{"name":"Wisconsin","id":"324","RegionsSkiArea":{"id":"178","ski_area_id":"178","region_id":"324","temp_region":"49","temp_country":"184"}}]},{"SkiArea":{"id":"179","name":"Devil's Head Resort","official_website":null,"geo_lat":"43.4220062741493","geo_lng":"-89.6273231506348","top_elevation":null,"bottom_elevation":null,"vertical_drop":null,"operating_status":"1","has_downhill":false,"has_nordic":false},"Region":[{"name":"Wisconsin","id":"324","RegionsSkiArea":{"id":"179","ski_area_id":"179","region_id":"324","temp_region":"49","temp_country":"184"}}]},{"SkiArea":{"id":"180","name":"Canaan Valley Resort","official_website":"http:\/\/www.canaanresort.com\/winter\/","geo_lat":"39.007472538140306","geo_lng":"-79.43682256062789","top_elevation":null,"bottom_elevation":null,"vertical_drop":null,"operating_status":"1","has_downhill":false,"has_nordic":false},"Region":[{"name":"West Virginia","id":"323","RegionsSkiArea":{"id":"180","ski_area_id":"180","region_id":"323","temp_region":"48","temp_country":"184"}}]},{"SkiArea":{"id":"181","name":"Snowshoe Mountain","official_website":"http:\/\/www.snowshoemtn.com\/","geo_lat":"38.424160087161","geo_lng":"-79.994555875147","top_elevation":null,"bottom_elevation":null,"vertical_drop":null,"operating_status":"1","has_downhill":false,"has_nordic":false},"Region":[{"name":"West Virginia","id":"323","RegionsSkiArea":{"id":"181","ski_area_id":"181","region_id":"323","temp_region":"48","temp_country":"184"}}]},{"SkiArea":{"id":"182","name":"Winterplace Ski Resort","official_website":null,"geo_lat":"37.59","geo_lng":"-81.115","top_elevation":null,"bottom_elevation":null,"vertical_drop":null,"operating_status":"1","has_downhill":false,"has_nordic":false},"Region":[{"name":"West Virginia","id":"323","RegionsSkiArea":{"id":"182","ski_area_id":"182","region_id":"323","temp_region":"48","temp_country":"184"}}]},{"SkiArea":{"id":"183","name":"Timberline Mountain (Timberline Four Seasons Resort)","official_website":"https:\/\/timberlinemountain.com","geo_lat":"39.0375863227058","geo_lng":"-79.3971633911133","top_elevation":null,"bottom_elevation":null,"vertical_drop":null,"operating_status":"1","has_downhill":false,"has_nordic":false},"Region":[{"name":"West Virginia","id":"323","RegionsSkiArea":{"id":"183","ski_area_id":"183","region_id":"323","temp_region":"48","temp_country":"184"}}]},{"SkiArea":{"id":"184","name":"White Pass Ski Area","official_website":"http:\/\/www.skiwhitepass.com","geo_lat":"46.623289874443","geo_lng":"-121.39445967311","top_elevation":"1829","bottom_elevation":"1372","vertical_drop":"457","operating_status":"1","has_downhill":true,"has_nordic":true},"Region":[{"name":"Washington","id":"322","RegionsSkiArea":{"id":"184","ski_area_id":"184","region_id":"322","temp_region":"47","temp_country":"184"}}]},{"SkiArea":{"id":"185","name":"Bluewood","official_website":"http:\/\/www.bluewood.com","geo_lat":"46.075850501194","geo_lng":"-117.85171508789","top_elevation":"1728","bottom_elevation":"1385","vertical_drop":"343","operating_status":"1","has_downhill":true,"has_nordic":true},"Region":[{"name":"Washington","id":"322","RegionsSkiArea":{"id":"185","ski_area_id":"185","region_id":"322","temp_region":"47","temp_country":"184"}}]},{"SkiArea":{"id":"186","name":"Mission Ridge Ski Area","official_website":"http:\/\/www.missionridge.com","geo_lat":"47.28152431316","geo_lng":"-120.4122539254","top_elevation":"2079","bottom_elevation":"1393","vertical_drop":"686","operating_status":"1","has_downhill":true,"has_nordic":false},"Region":[{"name":"Washington","id":"322","RegionsSkiArea":{"id":"186","ski_area_id":"186","region_id":"322","temp_region":"47","temp_country":"184"}}]},{"SkiArea":{"id":"187","name":"Badger Mountain Ski Area","official_website":"http:\/\/www.ci.waterville.wa.us\/ski%20hill.htm","geo_lat":"47.611284201429","geo_lng":"-120.12961864471","top_elevation":"1158","bottom_elevation":"914","vertical_drop":"244","operating_status":"1","has_downhill":true,"has_nordic":true},"Region":[{"name":"Washington","id":"322","RegionsSkiArea":{"id":"187","ski_area_id":"187","region_id":"322","temp_region":"47","temp_country":"184"}}]},{"SkiArea":{"id":"188","name":"Sitzmark Ski Hill","official_website":"http:\/\/gositzmark.org\/","geo_lat":"48.8639807401329","geo_lng":"-119.163980484009","top_elevation":null,"bottom_elevation":null,"vertical_drop":null,"operating_status":"1","has_downhill":true,"has_nordic":false},"Region":[{"name":"Washington","id":"322","RegionsSkiArea":{"id":"188","ski_area_id":"188","region_id":"322","temp_region":"47","temp_country":"184"}}]},{"SkiArea":{"id":"189","name":"Mt. Spokane Ski Area","official_website":null,"geo_lat":"47.9233596156413","geo_lng":"-117.102928161621","top_elevation":null,"bottom_elevation":null,"vertical_drop":null,"operating_status":"1","has_downhill":false,"has_nordic":false},"Region":[{"name":"Washington","id":"322","RegionsSkiArea":{"id":"189","ski_area_id":"189","region_id":"322","temp_region":"47","temp_country":"184"}}]},{"SkiArea":{"id":"190","name":"Stevens Pass Ski Area","official_website":"http:\/\/www.stevenspass.com","geo_lat":"47.737572652027","geo_lng":"-121.09042995777","top_elevation":"1782","bottom_elevation":"1238","vertical_drop":"549","operating_status":"1","has_downhill":false,"has_nordic":false},"Region":[{"name":"Washington","id":"322","RegionsSkiArea":{"id":"190","ski_area_id":"190","region_id":"322","temp_region":"47","temp_country":"184"}}]},{"SkiArea":{"id":"191","name":"Mt. Baker Ski Area","official_website":"http:\/\/www.mtbaker.us","geo_lat":"48.857260936884","geo_lng":"-121.66574080868","top_elevation":"1524","bottom_elevation":"1067","vertical_drop":"457","operating_status":"1","has_downhill":true,"has_nordic":false},"Region":[{"name":"Washington","id":"322","RegionsSkiArea":{"id":"191","ski_area_id":"191","region_id":"322","temp_region":"47","temp_country":"184"}}]},{"SkiArea":{"id":"192","name":"Loup Loup Ski Bowl","official_website":"http:\/\/www.skitheloup.com","geo_lat":"48.393307797187","geo_lng":"-119.91010665894","top_elevation":"1609","bottom_elevation":"1231","vertical_drop":"378","operating_status":"1","has_downhill":true,"has_nordic":true},"Region":[{"name":"Washington","id":"322","RegionsSkiArea":{"id":"192","ski_area_id":"192","region_id":"322","temp_region":"47","temp_country":"184"}}]},{"SkiArea":{"id":"193","name":"Crystal Mountain Resort","official_website":"https:\/\/www.crystalmountainresort.com\/","geo_lat":"46.936315801205","geo_lng":"-121.47428512573","top_elevation":"2137","bottom_elevation":"1192","vertical_drop":"944","operating_status":"1","has_downhill":true,"has_nordic":false},"Region":[{"name":"Washington","id":"322","RegionsSkiArea":{"id":"193","ski_area_id":"193","region_id":"322","temp_region":"47","temp_country":"184"}}]},{"SkiArea":{"id":"194","name":"The Summit at Snoqualmie \/ Alpental","official_website":"http:\/\/www.summit-at-snoqualmie.com","geo_lat":"47.412334866807","geo_lng":"-121.41843515102","top_elevation":"1646","bottom_elevation":"914","vertical_drop":"732","operating_status":"1","has_downhill":true,"has_nordic":true},"Region":[{"name":"Washington","id":"322","RegionsSkiArea":{"id":"194","ski_area_id":"194","region_id":"322","temp_region":"47","temp_country":"184"}}]},{"SkiArea":{"id":"195","name":"49 Degrees North Mountain Resort","official_website":"http:\/\/www.ski49n.com","geo_lat":"48.292973160081","geo_lng":"-117.56557351874","top_elevation":"1760","bottom_elevation":"1196","vertical_drop":"564","operating_status":"1","has_downhill":true,"has_nordic":true},"Region":[{"name":"Washington","id":"322","RegionsSkiArea":{"id":"195","ski_area_id":"195","region_id":"322","temp_region":"47","temp_country":"184"}}]},{"SkiArea":{"id":"196","name":"Bryce Resort","official_website":"http:\/\/www.bryceresort.com\/Home.aspx","geo_lat":"38.813897358089","geo_lng":"-78.7668657302856","top_elevation":null,"bottom_elevation":null,"vertical_drop":null,"operating_status":"1","has_downhill":true,"has_nordic":false},"Region":[{"name":"Virginia","id":"321","RegionsSkiArea":{"id":"196","ski_area_id":"196","region_id":"321","temp_region":"46","temp_country":"184"}}]},{"SkiArea":{"id":"197","name":"Massanutten Resort","official_website":"","geo_lat":"38.3992585068922","geo_lng":"-78.7578964233398","top_elevation":null,"bottom_elevation":null,"vertical_drop":null,"operating_status":"1","has_downhill":false,"has_nordic":false},"Region":[{"name":"Virginia","id":"321","RegionsSkiArea":{"id":"197","ski_area_id":"197","region_id":"321","temp_region":"46","temp_country":"184"}}]},{"SkiArea":{"id":"198","name":"The Homestead Ski Area","official_website":"","geo_lat":"37.9945393246973","geo_lng":"-79.8213386535645","top_elevation":null,"bottom_elevation":null,"vertical_drop":null,"operating_status":"1","has_downhill":false,"has_nordic":false},"Region":[{"name":"Virginia","id":"321","RegionsSkiArea":{"id":"198","ski_area_id":"198","region_id":"321","temp_region":"46","temp_country":"184"}}]},{"SkiArea":{"id":"199","name":"Wintergreen Ski Resort","official_website":"http:\/\/www.wintergreenresort.com","geo_lat":"37.919690743995","geo_lng":"-78.9451789855957","top_elevation":"1071","bottom_elevation":"766","vertical_drop":"305","operating_status":"1","has_downhill":true,"has_nordic":false},"Region":[{"name":"Virginia","id":"321","RegionsSkiArea":{"id":"199","ski_area_id":"199","region_id":"321","temp_region":"46","temp_country":"184"}}]},{"SkiArea":{"id":"200","name":"Mad River Glen","official_website":"http:\/\/www.madriverglen.com","geo_lat":"44.199752742045","geo_lng":"-72.925491252539","top_elevation":"1109","bottom_elevation":"488","vertical_drop":"621","operating_status":"1","has_downhill":true,"has_nordic":false},"Region":[{"name":"Vermont","id":"320","RegionsSkiArea":{"id":"200","ski_area_id":"200","region_id":"320","temp_region":"45","temp_country":"184"}}]},{"SkiArea":{"id":"201","name":"Magic Mountain","official_website":"http:\/\/www.magicmtn.com","geo_lat":"43.1984186853483","geo_lng":"-72.7667427062988","top_elevation":"870","bottom_elevation":"350","vertical_drop":"520","operating_status":"1","has_downhill":true,"has_nordic":false},"Region":[{"name":"Vermont","id":"320","RegionsSkiArea":{"id":"201","ski_area_id":"201","region_id":"320","temp_region":"45","temp_country":"184"}}]},{"SkiArea":{"id":"202","name":"Jay Peak","official_website":"http:\/\/jaypeakresort.com\/","geo_lat":"44.928547155091","geo_lng":"-72.514071065652","top_elevation":"1219","bottom_elevation":"609","vertical_drop":"610","operating_status":"1","has_downhill":false,"has_nordic":false},"Region":[{"name":"Vermont","id":"320","RegionsSkiArea":{"id":"202","ski_area_id":"202","region_id":"320","temp_region":"45","temp_country":"184"}}]},{"SkiArea":{"id":"203","name":"Suicide Six","official_website":"https:\/\/www.woodstockinn.com\/ski-area","geo_lat":"43.663888888889","geo_lng":"-72.544444444444","top_elevation":"366","bottom_elevation":"168","vertical_drop":"198","operating_status":"1","has_downhill":true,"has_nordic":false},"Region":[{"name":"Vermont","id":"320","RegionsSkiArea":{"id":"203","ski_area_id":"203","region_id":"320","temp_region":"45","temp_country":"184"}}]},{"SkiArea":{"id":"204","name":"Okemo Mountain Resort","official_website":"http:\/\/okemo.com","geo_lat":"43.410228868997","geo_lng":"-72.733165400523","top_elevation":"3344","bottom_elevation":"1144","vertical_drop":"2200","operating_status":"1","has_downhill":true,"has_nordic":false},"Region":[{"name":"Vermont","id":"320","RegionsSkiArea":{"id":"204","ski_area_id":"204","region_id":"320","temp_region":"45","temp_country":"184"}}]},{"SkiArea":{"id":"205","name":"Sugarbush Resort","official_website":"https:\/\/www.sugarbush.com\/","geo_lat":"44.148588670556","geo_lng":"-72.910809861836","top_elevation":"1244","bottom_elevation":"452","vertical_drop":"860","operating_status":"1","has_downhill":true,"has_nordic":false},"Region":[{"name":"Vermont","id":"320","RegionsSkiArea":{"id":"205","ski_area_id":"205","region_id":"320","temp_region":"45","temp_country":"184"}}]},{"SkiArea":{"id":"206","name":"Ascutney Outdoors","official_website":"","geo_lat":"43.4608937800826","geo_lng":"-72.4632453918457","top_elevation":null,"bottom_elevation":null,"vertical_drop":null,"operating_status":"1","has_downhill":true,"has_nordic":false},"Region":[{"name":"Vermont","id":"320","RegionsSkiArea":{"id":"206","ski_area_id":"206","region_id":"320","temp_region":"45","temp_country":"184"}}]},{"SkiArea":{"id":"207","name":"Cochran's Ski Area","official_website":"http:\/\/www.cochranskiarea.org\/","geo_lat":"44.396811336039","geo_lng":"-72.9820489883423","top_elevation":null,"bottom_elevation":null,"vertical_drop":null,"operating_status":"1","has_downhill":true,"has_nordic":false},"Region":[{"name":"Vermont","id":"320","RegionsSkiArea":{"id":"207","ski_area_id":"207","region_id":"320","temp_region":"45","temp_country":"184"}}]},{"SkiArea":{"id":"208","name":"Burke Mountain","official_website":"http:\/\/www.skiburke.com\/","geo_lat":"44.568055555556","geo_lng":"-71.885833333333","top_elevation":null,"bottom_elevation":null,"vertical_drop":null,"operating_status":"1","has_downhill":false,"has_nordic":false},"Region":[{"name":"Vermont","id":"320","RegionsSkiArea":{"id":"208","ski_area_id":"208","region_id":"320","temp_region":"45","temp_country":"184"}}]},{"SkiArea":{"id":"209","name":"Smugglers' Notch Resort","official_website":"http:\/\/www.smuggs.com\/","geo_lat":"44.570220368324","geo_lng":"-72.771087504604","top_elevation":"1109","bottom_elevation":"314","vertical_drop":"795","operating_status":"1","has_downhill":true,"has_nordic":false},"Region":[{"name":"Vermont","id":"320","RegionsSkiArea":{"id":"209","ski_area_id":"209","region_id":"320","temp_region":"45","temp_country":"184"}}]},{"SkiArea":{"id":"210","name":"Mount Snow","official_website":"http:\/\/mountsnow.com\/","geo_lat":"42.961588905999","geo_lng":"-72.907748315688","top_elevation":"1097","bottom_elevation":"579","vertical_drop":"518","operating_status":"1","has_downhill":false,"has_nordic":false},"Region":[{"name":"Vermont","id":"320","RegionsSkiArea":{"id":"210","ski_area_id":"210","region_id":"320","temp_region":"45","temp_country":"184"}}]},{"SkiArea":{"id":"211","name":"Killington","official_website":"http:\/\/www.killington.com","geo_lat":"43.620054320571","geo_lng":"-72.806830769519","top_elevation":"1285","bottom_elevation":"355","vertical_drop":"930","operating_status":"1","has_downhill":true,"has_nordic":false},"Region":[{"name":"Vermont","id":"320","RegionsSkiArea":{"id":"211","ski_area_id":"211","region_id":"320","temp_region":"45","temp_country":"184"}}]},{"SkiArea":{"id":"212","name":"Stowe Mountain Resort","official_website":"http:\/\/www.stowe.com","geo_lat":"44.529778358652","geo_lng":"-72.790327702853","top_elevation":"1134","bottom_elevation":"475","vertical_drop":"658","operating_status":"1","has_downhill":true,"has_nordic":true},"Region":[{"name":"Vermont","id":"320","RegionsSkiArea":{"id":"212","ski_area_id":"212","region_id":"320","temp_region":"45","temp_country":"184"}}]},{"SkiArea":{"id":"213","name":"Stratton Mountain Resort","official_website":"https:\/\/www.stratton.com\/","geo_lat":"43.102252692073","geo_lng":"-72.909626272697","top_elevation":"1181","bottom_elevation":"609","vertical_drop":"571","operating_status":"1","has_downhill":true,"has_nordic":false},"Region":[{"name":"Vermont","id":"320","RegionsSkiArea":{"id":"213","ski_area_id":"213","region_id":"320","temp_region":"45","temp_country":"184"}}]},{"SkiArea":{"id":"214","name":"Middlebury College Snow Bowl","official_website":null,"geo_lat":"43.94","geo_lng":"-72.96","top_elevation":null,"bottom_elevation":null,"vertical_drop":null,"operating_status":"1","has_downhill":false,"has_nordic":false},"Region":[{"name":"Vermont","id":"320","RegionsSkiArea":{"id":"214","ski_area_id":"214","region_id":"320","temp_region":"45","temp_country":"184"}}]},{"SkiArea":{"id":"215","name":"Quechee Lakes","official_website":"http:\/\/www.quecheeclub.com\/","geo_lat":"43.65644669723089","geo_lng":"-72.44453430175776","top_elevation":null,"bottom_elevation":null,"vertical_drop":null,"operating_status":"1","has_downhill":true,"has_nordic":true},"Region":[{"name":"Vermont","id":"320","RegionsSkiArea":{"id":"215","ski_area_id":"215","region_id":"320","temp_region":"45","temp_country":"184"}}]},{"SkiArea":{"id":"216","name":"Bolton Valley Resort","official_website":"http:\/\/www.boltonvalley.com","geo_lat":"44.415833333333","geo_lng":"-72.869722222222","top_elevation":null,"bottom_elevation":null,"vertical_drop":null,"operating_status":"1","has_downhill":true,"has_nordic":false},"Region":[{"name":"Vermont","id":"320","RegionsSkiArea":{"id":"216","ski_area_id":"216","region_id":"320","temp_region":"45","temp_country":"184"}}]},{"SkiArea":{"id":"217","name":"Bromley Mountain","official_website":"https:\/\/www.bromley.com\/","geo_lat":"43.227777777778","geo_lng":"-72.938611111111","top_elevation":"1000","bottom_elevation":"406","vertical_drop":"406","operating_status":"1","has_downhill":true,"has_nordic":false},"Region":[{"name":"Vermont","id":"320","RegionsSkiArea":{"id":"217","ski_area_id":"217","region_id":"320","temp_region":"45","temp_country":"184"}}]},{"SkiArea":{"id":"219","name":"Snowbasin","official_website":"http:\/\/www.snowbasin.com\/","geo_lat":"41.201505936011","geo_lng":"-111.86125784888","top_elevation":null,"bottom_elevation":null,"vertical_drop":null,"operating_status":"1","has_downhill":true,"has_nordic":true},"Region":[{"name":"Utah","id":"319","RegionsSkiArea":{"id":"219","ski_area_id":"219","region_id":"319","temp_region":"44","temp_country":"184"}}]},{"SkiArea":{"id":"220","name":"Beaver Mountain Ski Area","official_website":"","geo_lat":"41.968333333333","geo_lng":"-111.54166666667","top_elevation":null,"bottom_elevation":null,"vertical_drop":null,"operating_status":"1","has_downhill":true,"has_nordic":false},"Region":[{"name":"Utah","id":"319","RegionsSkiArea":{"id":"220","ski_area_id":"220","region_id":"319","temp_region":"44","temp_country":"184"}}]},{"SkiArea":{"id":"221","name":"Nordic Valley Resort","official_website":"http:\/\/nordicvalley.com\/","geo_lat":"41.3103554","geo_lng":"-111.8648485","top_elevation":null,"bottom_elevation":null,"vertical_drop":null,"operating_status":"1","has_downhill":true,"has_nordic":false},"Region":[{"name":"Utah","id":"319","RegionsSkiArea":{"id":"221","ski_area_id":"221","region_id":"319","temp_region":"44","temp_country":"184"}}]},{"SkiArea":{"id":"222","name":"Brighton Ski Resort","official_website":"https:\/\/brightonresort.com\/","geo_lat":"40.59312888125","geo_lng":"-111.57823291875","top_elevation":null,"bottom_elevation":null,"vertical_drop":null,"operating_status":"1","has_downhill":true,"has_nordic":false},"Region":[{"name":"Utah","id":"319","RegionsSkiArea":{"id":"222","ski_area_id":"222","region_id":"319","temp_region":"44","temp_country":"184"}}]},{"SkiArea":{"id":"223","name":"Deer Valley Resort","official_website":"","geo_lat":"40.620991937564","geo_lng":"-111.48925008823","top_elevation":null,"bottom_elevation":null,"vertical_drop":null,"operating_status":"1","has_downhill":true,"has_nordic":false},"Region":[{"name":"Utah","id":"319","RegionsSkiArea":{"id":"223","ski_area_id":"223","region_id":"319","temp_region":"44","temp_country":"184"}}]},{"SkiArea":{"id":"224","name":"Alta Ski Area","official_website":"https:\/\/www.alta.com\/","geo_lat":"40.587624565557874","geo_lng":"-111.63740158081056","top_elevation":"3374","bottom_elevation":"2600","vertical_drop":"773","operating_status":"1","has_downhill":true,"has_nordic":false},"Region":[{"name":"Utah","id":"319","RegionsSkiArea":{"id":"224","ski_area_id":"224","region_id":"319","temp_region":"44","temp_country":"184"}}]},{"SkiArea":{"id":"225","name":"Solitude Mountain Resort","official_website":"https:\/\/solitudemountain.com\/","geo_lat":"40.619620700952034","geo_lng":"-111.59212589263917","top_elevation":"3059","bottom_elevation":"2435","vertical_drop":null,"operating_status":"1","has_downhill":true,"has_nordic":true},"Region":[{"name":"Utah","id":"319","RegionsSkiArea":{"id":"225","ski_area_id":"225","region_id":"319","temp_region":"44","temp_country":"184"}}]},{"SkiArea":{"id":"226","name":"Snowbird Ski and Summer Resort","official_website":"https:\/\/www.snowbird.com\/","geo_lat":"40.57967203006171","geo_lng":"-111.6559410095215","top_elevation":"3353","bottom_elevation":"2365","vertical_drop":"987","operating_status":"1","has_downhill":true,"has_nordic":false},"Region":[{"name":"Utah","id":"319","RegionsSkiArea":{"id":"226","ski_area_id":"226","region_id":"319","temp_region":"44","temp_country":"184"}}]},{"SkiArea":{"id":"227","name":"Brian Head Resort","official_website":"https:\/\/www.brianhead.com\/","geo_lat":"37.690528913503","geo_lng":"-112.84595695893","top_elevation":null,"bottom_elevation":null,"vertical_drop":null,"operating_status":"1","has_downhill":true,"has_nordic":false},"Region":[{"name":"Utah","id":"319","RegionsSkiArea":{"id":"227","ski_area_id":"227","region_id":"319","temp_region":"44","temp_country":"184"}}]},{"SkiArea":{"id":"228","name":"Powder Mountain","official_website":"","geo_lat":"41.37995874677","geo_lng":"-111.76797883721","top_elevation":null,"bottom_elevation":null,"vertical_drop":null,"operating_status":"1","has_downhill":true,"has_nordic":false},"Region":[{"name":"Utah","id":"319","RegionsSkiArea":{"id":"228","ski_area_id":"228","region_id":"319","temp_region":"44","temp_country":"184"}}]},{"SkiArea":{"id":"229","name":"Park City Mountain Resort (The Canyons)","official_website":"http:\/\/parkcitymountain.com","geo_lat":"40.633565571877","geo_lng":"-111.52393512664","top_elevation":"3048","bottom_elevation":"2073","vertical_drop":"975","operating_status":"1","has_downhill":true,"has_nordic":false},"Region":[{"name":"Utah","id":"319","RegionsSkiArea":{"id":"229","ski_area_id":"229","region_id":"319","temp_region":"44","temp_country":"184"}}]},{"SkiArea":{"id":"230","name":"Sundance","official_website":"","geo_lat":"40.380272366609","geo_lng":"-111.58739950947","top_elevation":null,"bottom_elevation":null,"vertical_drop":null,"operating_status":"1","has_downhill":true,"has_nordic":false},"Region":[{"name":"Utah","id":"319","RegionsSkiArea":{"id":"230","ski_area_id":"230","region_id":"319","temp_region":"44","temp_country":"184"}}]},{"SkiArea":{"id":"231","name":"Eagle Point","official_website":"http:\/\/www.skieaglepoint.com","geo_lat":"38.31741722616916","geo_lng":"-112.38739013671875","top_elevation":null,"bottom_elevation":null,"vertical_drop":null,"operating_status":"1","has_downhill":true,"has_nordic":false},"Region":[{"name":"Utah","id":"319","RegionsSkiArea":{"id":"231","ski_area_id":"231","region_id":"319","temp_region":"44","temp_country":"184"}}]},{"SkiArea":{"id":"232","name":"Ober Gatlinburg Ski Resort","official_website":"https:\/\/obergatlinburg.com\/","geo_lat":"35.7014288312721","geo_lng":"-83.5592222213745","top_elevation":null,"bottom_elevation":null,"vertical_drop":null,"operating_status":"1","has_downhill":true,"has_nordic":false},"Region":[{"name":"Tennessee","id":"317","RegionsSkiArea":{"id":"232","ski_area_id":"232","region_id":"317","temp_region":"42","temp_country":"184"}}]},{"SkiArea":{"id":"233","name":"Terry Peak Ski Area","official_website":null,"geo_lat":"44.3307862513214","geo_lng":"-103.834190368652","top_elevation":null,"bottom_elevation":null,"vertical_drop":null,"operating_status":"1","has_downhill":false,"has_nordic":false},"Region":[{"name":"South Dakota","id":"316","RegionsSkiArea":{"id":"233","ski_area_id":"233","region_id":"316","temp_region":"41","temp_country":"184"}}]},{"SkiArea":{"id":"234","name":"Great Bear Recreation Park","official_website":null,"geo_lat":"43.5821","geo_lng":"-96.664966666667","top_elevation":null,"bottom_elevation":null,"vertical_drop":null,"operating_status":"1","has_downhill":false,"has_nordic":false},"Region":[{"name":"South Dakota","id":"316","RegionsSkiArea":{"id":"234","ski_area_id":"234","region_id":"316","temp_region":"41","temp_country":"184"}}]},